Facility_ID,Facility_Name,Facility_Type,Facility_Subtype,Indoor_Outdoor,Ownership_Type,Ownership_flag,address,google_type,google_latitude,google_longitude
1,Abbotsford Recreation Centre,Ice,2+ surfaces,Both,Public,,"2499 MCMILLAN RD, ABBOTSFORD, BC",ROOFTOP,49.0483664,-122.2629637
8,Matsqui Recreation Centre (MRC),Leisure / Community Centres,General,Indoor,Public,,"3106 CLEARBROOK RD, ABBOTSFORD, BC",ROOFTOP,49.0585882,-122.3351546
13,Abbotsford Youth Commission,Leisure / Community Centres,Youth,Indoor,Public,1.0,"33355 BEVAN AVE, ABBOTSFORD, BC",ROOFTOP,49.0435524,-122.3005743
14,Abbotsford Seniors Association,Leisure / Community Centres,Seniors,Indoor,Public,1.0,"2631 CYRIL ST, ABBOTSFORD, BC",ROOFTOP,49.0492503,-122.2866519
15,MSA Arena,Ice,Single surface,Indoor,Public,,"2323 EMERSON ST, ABBOTSFORD, BC",ROOFTOP,49.0441487,-122.3194607
16,Abbotsford Exhibition Park,Ice,Single surface,Indoor,Public,,"32470 HAIDA DR, ABBOTSFORD, BC",GEOMETRIC_CENTER,49.0630841,-122.324455
19,The Rinks at Summit Centre,Ice,2+ surfaces,Indoor,Public,,"104-3600 TOWNLINE RD, ABBOTSFORD, BC",ROOFTOP,49.068299,-122.358963
20,Abbotsford Ice Rink,Ice,Single surface,Indoor,Public,1.0,"34100S S FRASER WAY UNIT #14, ABBOTSFORD, BC",,0.0,0.0
21,Abbotsford Centre,Ice,Single surface,Indoor,Public,,"33800 KING RD, ABBOTSFORD, BC",GEOMETRIC_CENTER,49.0306471,-122.287015
23,Envision Financial Athletic Centre,Physical Recreation & Sports,Gymnasiums ,Indoor,Both,,"1395 MCKENZIE RD, ABBOTSFORD, BC",ROOFTOP,49.0271404,-122.2841262
25,Great West Fitness and Tennis Club,Physical Recreation & Sports,Fitness centres / areas ,Indoor,Private,,"2550 YALE CT, ABBOTSFORD, BC",ROOFTOP,49.0471346,-122.269297
27,Performance Tennis Academy,Physical Recreation & Sports,Tennis and/or pickleball courts ,Indoor,Private,,"2550 YALE CT #125, ABBOTSFORD, BC",,0.0,0.0
28,Jubilee Hall,Leisure / Community Centres,General,Indoor,Public,1.0,"7989 BRADNER RD, ABBOTSFORD, BC",ROOFTOP,49.1478438,-122.4276808
29,Sweeney Neighbourhood Centre,Leisure / Community Centres,General,Indoor,Public,,"33355 BEVAN AVE, ABBOTSFORD, BC",ROOFTOP,49.0435524,-122.3005743
30,Straiton Community Hall,Leisure / Community Centres,General,Indoor,Public,1.0,"4698 SUMAS MOUNTAIN RD, ABBOTSFORD, BC",ROOFTOP,49.0879311,-122.2050951
31,Matsqui Community Hall,Leisure / Community Centres,General,Indoor,Public,1.0,"33676 ST OLAF AVE, ABBOTSFORD, BC",ROOFTOP,49.1069518,-122.2918682
32,Bradner Hall,Leisure / Community Centres,General,Indoor,Public,,"5305 BRADNER RD, ABBOTSFORD, BC",ROOFTOP,49.098568,-122.426829
33,Mission Leisure Centre,Ice,2+ surfaces,Indoor,Public,,"7650 GRAND ST, MISSION, BC",ROOFTOP,49.1405998,-122.3069265
41,Mission Golf & Country Club,Leisure / Community Centres,General,Indoor,Private,,"7983 NELSON ST, MISSION, BC",RANGE_INTERPOLATED,49.1472701,-122.3562047
42,Mission Seniors Activity Centre,Leisure / Community Centres,Seniors,Indoor,Public,1.0,"33100 10 AVE, MISSION, BC",ROOFTOP,49.1424253,-122.3066512
44,Kelowna Memorial Arena,Ice,Single surface,Indoor,Public,,"1424 ELLIS ST, KELOWNA, BC",ROOFTOP,49.8886461,-119.494442
45,Capital News Centre,Ice,2+ surfaces,Indoor,Public,1.0,"4105 GORDON DR, KELOWNA, BC",ROOFTOP,49.8360301,-119.4800257
50,Rutland Twin Arena,Ice,2+ surfaces,Indoor,Public,,"645 DODD RD, KELOWNA, BC",ROOFTOP,49.8980395,-119.3798216
51,Kelowna Curling Club,Ice,Curling,Indoor,Public,1.0,"551 RECREATION AVE, KELOWNA, BC",ROOFTOP,49.8971953,-119.4920492
52,H2O Adventure + Fitness Centre,Aquatics,50m+ pool with or without other pools,Indoor,Public,,"4075 GORDON DR, KELOWNA, BC",ROOFTOP,49.83787239999999,-119.4809499
57,Kelowna Family YMCA,Aquatics,25m pool with or without other pools,Indoor,Public,,"375 HARTMAN RD, KELOWNA, BC",ROOFTOP,49.8984056,-119.3818894
62,Parkinson Recreation Centre,Aquatics,25m pool with or without other pools,Indoor,Public,,"1800 PARKINSON WAY, KELOWNA, BC",ROOFTOP,49.884,-119.459
67,Kelowna Downtown YMCA,Physical Recreation & Sports,Fitness centres / areas ,Indoor,Public,,"1011-505 DOYLE AVE, KELOWNA, BC",ROOFTOP,49.8888651,-119.4926748
69,Energyplex Family Recreation Centre Kelowna,Physical Recreation & Sports,Playgrounds ,Indoor,Public,,"948 MCCURDY RD, KELOWNA, BC",ROOFTOP,49.902888,-119.4048485
70,Rutland Activity Centre,Leisure / Community Centres,General,Indoor,Public,,"765 DODD RD, KELOWNA, BC",ROOFTOP,49.8976324,-119.3803911
73,Kinsmen Media Centre,Leisure / Community Centres,General,Indoor,Public,,"900 LEXINGTON DR, KELOWNA, BC",RANGE_INTERPOLATED,49.8401815,-119.4736091
74,Kinsmen Fieldhouse Hall,Leisure / Community Centres,General,Indoor,Public,,"3975 GORDON DR, KELOWNA, BC",ROOFTOP,49.8396134,-119.4821424
75,Metis Community Services,Leisure / Community Centres,General,Indoor,Public,,"147 PARK RD, KELOWNA, BC",ROOFTOP,49.8883032,-119.3884439
76,Airhouse Kelowna,Physical Recreation & Sports,Skate parks,Indoor,Public,,"730 MCCURDY RD, KELOWNA, BC",ROOFTOP,49.9015918,-119.4004125
78,Okanagan Jewish Community Centre,Leisure / Community Centres,General,Indoor,Public,,"102 SNOWSELL ST N, KELOWNA, BC",ROOFTOP,49.92890329999999,-119.4381622
79,Joe Rich Community Hall,Leisure / Community Centres,General,Indoor,Public,1.0,"11481 BC-33, KELOWNA, BC",ROOFTOP,49.8644547,-119.1411549
80,Kelowna Badminton Club,Physical Recreation & Sports,"Racquet courts (squash, racquetball, badminton)",Indoor,Private,,"1098 RICHTER ST, KELOWNA, BC",ROOFTOP,49.8956712,-119.4889277
81,The Hangar Fitness and Wellness Centre,Physical Recreation & Sports,Fitness centres / areas ,Indoor,Public,,"3211 ATHLETICS CT, KELOWNA, BC",ROOFTOP,49.938546,-119.3973762
85,Cedar Creek Community Centre,Leisure / Community Centres,General,Indoor,Public,,"5160 CHUTE LAKE RD, KELOWNA, BC",ROOFTOP,49.7959156,-119.5024797
86,Kelowna United Mission Soccer Dome,Physical Recreation & Sports,Sport fields,Indoor,Public,1.0,"4075 GORDON DRIVE, KELOWNA, BC",ROOFTOP,49.83787239999999,-119.4809499
87,Okanagan Mission Activity Centre,Leisure / Community Centres,General,Indoor,Public,,"4398 HOBSON RD, KELOWNA, BC",ROOFTOP,49.8263898,-119.4984744
89,Prospera Place,Ice,Single surface,Indoor,Public,1.0,"1223 WATER STREET, KELOWNA, BC",ROOFTOP,49.89264,-119.4952925
90,Okanagan Boys & Girls Clubs ,Leisure / Community Centres,General,Indoor,Public,,"355 HARTMAN ROAD, KELOWNA, BC",ROOFTOP,49.89970350000001,-119.3811293
91,Martin Avenue Community Centre,Leisure / Community Centres,General,Indoor,Public,,"1434 GRAHAM ST, KELOWNA, BC",ROOFTOP,49.8883658,-119.4802047
92,Okanagan Mission Community Hall Association,Leisure / Community Centres,General,Indoor,Public,,"4409 LAKESHORE ROAD, KELOWNA BC",ROOFTOP,49.8223785,-119.4878523
93,Ellison Community Hall,Leisure / Community Centres,General,Indoor,Public,,"4411 OLD VERNON RD, KELOWNA, BC",ROOFTOP,49.94794580000001,-119.3681441
94,East Kelowna Hall,Leisure / Community Centres,General,Indoor,Public,1.0,"2704 EAST KELOWNA ROAD, KELOWNA, BC",ROOFTOP,49.8600535,-119.4243848
95,Rutland Centennial Hall,Leisure / Community Centres,General,Indoor,Public,1.0,"215 SHEPHERD ROAD KELOWNA, BC",ROOFTOP,49.8903143,-119.3890255
96,Jim Lind Arena,Ice,Single surface,Indoor,Public,,"2760 CAMERON RD, WEST KELOWNA, BC",ROOFTOP,49.858206,-119.5821069
97,Ultimate Hockey Centre,Ice,Single surface,Indoor,Private,,"1322 STEVENS RD, WEST KELOWNA, BC",ROOFTOP,49.8667688,-119.5703949
98,Royal LePage Place Arena,Ice,Single surface,Indoor,Both,,"2760 CAMERON RD, WEST KELOWNA, BC",ROOFTOP,49.858206,-119.5821069
100,Johnson Bentley Memorial Aquatic Centre,Aquatics,25m pool with or without other pools,Indoor,Public,,"3737 OLD OKANAGAN HWY, WEST KELOWNA, BC",GEOMETRIC_CENTER,49.82660629999999,-119.6227361
104,Lakeview Heights Community Hall,Leisure / Community Centres,General,Indoor,Public,,"860 ANDERS RD, WEST KELOWNA, BC",ROOFTOP,49.8604115,-119.5492589
105,West Kelowna Multi-Sport Dome,Physical Recreation & Sports,Sport fields,Indoor,Public,,"2139 MCDOUGALL RD, WEST KELOWNA, BC",ROOFTOP,49.8764152,-119.5710446
107,Westside Senior Citizens Service Association Activity Centre,Leisure / Community Centres,Seniors,Indoor,Public,,"3661 OLD OKANAGAN HWY, WEST KELOWNA, BC",ROOFTOP,49.8306668,-119.624962
109,Webber Road Community Centre,Leisure / Community Centres,Youth,Indoor,Public,,"2829 INVERNESS RD, WEST KELOWNA, BC",ROOFTOP,49.8308477,-119.6496106
111,Westbank Lions Community Centre,Leisure / Community Centres,General,Indoor,Public,,"2466 MAIN ST, WEST KELOWNA, BC",ROOFTOP,49.8301862,-119.6291755
112,Westside Youth Centre,Leisure / Community Centres,Youth,Indoor,Public,,"2466 MAIN ST, WEST KELOWNA, BC",ROOFTOP,49.8301862,-119.6291755
113,Winfield Arena,Ice,Single surface,Indoor,Public,,"9830 BOTTOM WOOD LAKE RD, LAKE COUNTRY, BC",GEOMETRIC_CENTER,50.0245124,-119.4004855
114,Lake Country Seniors Activity Centre,Leisure / Community Centres,Seniors,Indoor,Public,,"9832 BOTTOM WOOD LAKE RD, LAKE COUNTRY, BC",ROOFTOP,50.024776,-119.3993587
115,Okanagan Centre Hall,Leisure / Community Centres,General,Indoor,Public,,"11099 MADDOCK AVE, LAKE COUNTRY, BC",ROOFTOP,50.0444125,-119.449004
116,Beasley Community Centre,Leisure / Community Centres,General,Indoor,Public,,"3450 WOODSDALE RD, LAKE COUNTRY, BC",GEOMETRIC_CENTER,50.0506929,-119.3968896
117,Peachland Community Centre,Leisure / Community Centres,General,Indoor,Public,,"4450 6 ST, PEACHLAND, BC",ROOFTOP,49.77731290000001,-119.7350223
118,Peachland Wellness Centre,Leisure / Community Centres,General,Indoor,Public,,"4426 5TH ST, PEACHLAND, BC",ROOFTOP,49.775929,-119.7353556
119,50+ Activity Centre,Leisure / Community Centres,Seniors,Indoor,Public,,"5672 BEACH AVE, PEACHLAND, BC",ROOFTOP,49.778313,-119.733542
121,Okanagan Training Rink,Ice,Single surface,Indoor,Public,1.0,"5204 27 AVE, VERNON, BC",ROOFTOP,50.2575598,-119.3062364
122,Douglas Park Community Centre,Leisure / Community Centres,General,Both,Public,,"801 W 22ND AVE, VANCOUVER, BC",ROOFTOP,49.2522023,-123.1223905
125,Kensington Community Centre,Leisure / Community Centres,Seniors,Indoor,Public,,"5175 DUMFRIES ST, VANCOUVER, BC",GEOMETRIC_CENTER,49.2385581,-123.0753333
128,Kitsilano War Memorial Community Centre,Leisure / Community Centres,General,Indoor,Public,,"2690 LARCH ST, VANCOUVER, BC",ROOFTOP,49.2615316,-123.162041
131,Evelyne Saller Centre,Leisure / Community Centres,General,Indoor,Public,,"320 ALEXANDER ST, VANCOUVER, BC",ROOFTOP,49.28395099999999,-123.096892
132,Mount Pleasant Community Centre,Leisure / Community Centres,General,Indoor,Public,,"1 KINGSWAY, VANCOUVER, BC",ROOFTOP,49.26430999999999,-123.10041
134,Renfrew Park Community Centre,Leisure / Community Centres,General,Indoor,Public,,"2929 E 22ND AVE, VANCOUVER, BC",GEOMETRIC_CENTER,49.2518833,-123.0427592
137,Strathcona Community Centre,Leisure / Community Centres,General,Indoor,Public,,"601 KEEFER ST, VANCOUVER, BC",ROOFTOP,49.2797798,-123.0915463
139,West End Community Centre,Leisure / Community Centres,General,Indoor,Public,,"870 DENMAN ST, VANCOUVER, BC",ROOFTOP,49.2904892,-123.1365722
143,West Point Grey Community Centre,Leisure / Community Centres,General,Indoor,Public,,"4397 W 2ND AVE, VANCOUVER, BC",ROOFTOP,49.27155339999999,-123.2051522
146,Lord Byng Pool,Aquatics,25m pool with or without other pools,Indoor,Public,,"3990 W 14TH AVE, VANCOUVER, BC",ROOFTOP,49.259309,-123.1928684
147,False Creek Community Centre,Leisure / Community Centres,General,Both,Public,,"1318 CARTWRIGHT ST, VANCOUVER, BC",GEOMETRIC_CENTER,49.2690046,-123.1346044
149,Roundhouse Community Arts & Recreation Centre,Leisure / Community Centres,General,Both,Public,,"181 ROUNDHOUSE MEWS, VANCOUVER, BC",ROOFTOP,49.273368,-123.1217496
151,Coal Harbour Community Centre,Leisure / Community Centres,General,Both,Public,,"480 BROUGHTON ST, VANCOUVER, BC",ROOFTOP,49.2900551,-123.1256944
154,Dunbar Community Centre,Leisure / Community Centres,General,Both,Public,,"4747 DUNBAR ST, VANCOUVER, BC",ROOFTOP,49.2437967,-123.1861423
157,Hastings Community Centre,Leisure / Community Centres,General,Both,Public,,"3096 E HASTINGS ST, VANCOUVER, BC",ROOFTOP,49.280658,-123.0394186
161,Gathering Place Community Centre,Leisure / Community Centres,General,Indoor,Public,,"609 HELMCKEN ST, VANCOUVER, BC",ROOFTOP,49.2780063,-123.1235633
163,Thunderbird Community Centre,Leisure / Community Centres,General,Indoor,Public,,"2311 CASSIAR ST, VANCOUVER, BC",ROOFTOP,49.2638999,-123.0313168
166,Kerrisdale Community Centre,Leisure / Community Centres,General,Both,Public,,"5851 WEST BLVD, VANCOUVER, BC",ROOFTOP,49.2332521,-123.1564775
170,Killarney Community Centre,Leisure / Community Centres,General,Both,Public,,"6260 KILLARNEY ST, VANCOUVER, BC",ROOFTOP,49.2274099,-123.0443906
175,Creekside Community Recreation Centre,Leisure / Community Centres,General,Indoor,Public,,"1 ATHLETES WAY, VANCOUVER, BC",ROOFTOP,49.27172090000001,-123.1053657
178,Britannia Centre,Leisure / Community Centres,General,Both,Public,,"1661 NAPIER ST, VANCOUVER, BC",ROOFTOP,49.2750517,-123.070414
184,Marpole-Oakridge Community Centre,Leisure / Community Centres,General,Both,Public,,"990 W 59TH AVE, VANCOUVER, BC",ROOFTOP,49.2167952,-123.1288661
188,Marpole Curling Club,Ice,Curling,Indoor,Public,,"8730 HEATHER ST, VANCOUVER, BC",ROOFTOP,49.20638590000001,-123.123228
189,Carnegie Centre Community Centre,Leisure / Community Centres,General,Indoor,Public,,"401 MAIN ST, VANCOUVER, BC",ROOFTOP,49.281052,-123.1001272
192,Hillcrest Community Centre,Leisure / Community Centres,General,Both,Public,,"4575 CLANCY LORANGER WAY, VANCOUVER, BC",ROOFTOP,49.2442998,-123.1076556
198,Sunset Community Centre,Leisure / Community Centres,General,Both,Public,,"6810 MAIN ST, VANCOUVER, BC",ROOFTOP,49.2228633,-123.1011745
200,Trout Lake Community Centre,Leisure / Community Centres,General,Both,Public,,"3360 VICTORIA DR, VANCOUVER, BC",ROOFTOP,49.2463966,-123.0647058
204,Champlain Heights Community Centre,Leisure / Community Centres,General,Indoor,Public,,"3350 MAQUINNA DR, VANCOUVER, BC",ROOFTOP,49.2144481,-123.0320663
207,Ray-Cam Co-Operative Center,Leisure / Community Centres,General,Indoor,Public,,"920 E HASTINGS ST, VANCOUVER, BC",ROOFTOP,49.281381,-123.083589
210,Templeton Park Pool,Aquatics,25m pool with or without other pools,Indoor,Public,,"700 TEMPLETON DR, VANCOUVER, BC",ROOFTOP,49.2782966,-123.0599481
211,Vancouver Aquatic Centre,Aquatics,50m+ pool with or without other pools,Indoor,Public,,"1050 BEACH AVE, VANCOUVER, BC",ROOFTOP,49.2768415,-123.1353774
212,Connaught Park,Leisure / Community Centres,General,Both,Public,,"2390 W 10TH AVE, VANCOUVER, BC",ROOFTOP,49.2627999,-123.1597174
213,Kitsilano Community Centre,Physical Recreation & Sports,Fitness centres / areas ,Indoor,Public,1.0,"2690 LARCH ST, VANCOUVER, BC",ROOFTOP,49.2615316,-123.162041
215,Sunset Arena,Ice,Single surface,Indoor,Public,,"390 E 51ST AVE, VANCOUVER, BC",ROOFTOP,49.2231447,-123.0980992
216,Kerrisdale Cyclone Taylor Arena,Ice,Single surface,Indoor,Public,,"5670 EAST BLVD, VANCOUVER, BC",ROOFTOP,49.2353056,-123.1539567
218,UBC Tennis Centre,Physical Recreation & Sports,Tennis and/or pickleball courts ,Both,Public,,"6160 THUNDERBIRD BLVD, VANCOUVER, BC",ROOFTOP,49.2599145,-123.2443866
219,The Arbutus Club,Aquatics,25m pool with or without other pools,Indoor,Private,,"2001 NANTON AVE, VANCOUVER, BC",ROOFTOP,49.2487192,-123.1517219
226,Stan Stronge Pool,Aquatics,25m pool with or without other pools,Indoor,Public,,"719 W 59TH AVE, VANCOUVER, BC",ROOFTOP,49.2176892,-123.121079
227,Aquatics at the JCCGV,Aquatics,25m pool with or without other pools,Indoor,Public,1.0,"950 W 41ST AVE, VANCOUVER, BC",ROOFTOP,49.23344280000001,-123.1267225
228,Jewish Community Centre of Greater Vancouver,Leisure / Community Centres,General,Indoor,Public,1.0,"950 W 41ST AVE, VANCOUVER, BC",ROOFTOP,49.23344280000001,-123.1267225
231,Aquaventures Swim Centre,Aquatics,25m pool with or without other pools,Indoor,Public,1.0,"1630 W 5TH AVE, VANCOUVER, BC",ROOFTOP,49.2666823,-123.1420412
232,Kerr Pool at St. George's School,Aquatics,25m pool with or without other pools,Indoor,Private,,"4175 W 29TH AVE, VANCOUVER, BC",GEOMETRIC_CENTER,49.2471603,-123.1983488
233,UBC Aquatic Centre,Aquatics,25m pool with or without other pools,Indoor,Public,,"6080 STUDENT UNION BLVD, VANCOUVER, BC",RANGE_INTERPOLATED,49.26844980000001,-123.2497574
234,YWCA Health + Fitness Centre,Aquatics,25m pool with or without other pools,Indoor,Public,,"535 HORNBY ST, VANCOUVER, BC",ROOFTOP,49.2855342,-123.1177823
237,Robert Lee YMCA,Aquatics,25m pool with or without other pools,Indoor,Public,,"955 BURRARD ST, VANCOUVER, BC",ROOFTOP,49.2818276,-123.125498
241,Propel Swimming Lessons,Aquatics,25m pool with or without other pools,Indoor,Private,,"1234 HORNBY ST, VANCOUVER, BC",ROOFTOP,49.2778649,-123.1284885
242,Swim Lessons Vancouver,Aquatics,25m pool with or without other pools,Indoor,Private,,"1088 BURRARD ST, VANCOUVER, BC",ROOFTOP,49.2801681,-123.1271342
243,Roundhouse Community Arts & Recreation Centre,Leisure / Community Centres,General,Indoor,Public,,"181 ROUNDHOUSE MEWS, VANCOUVER, BC",ROOFTOP,49.273368,-123.1217496
244,UBC Student Recreation Centre,Ice,Single surface,Indoor,Private,,"6000 STUDENT UNION BLVD, VANCOUVER, BC",ROOFTOP,49.2683872,-123.2489651
247,Old Barn Community Centre,Leisure / Community Centres,General,Indoor,Private,,"6308 THUNDERBIRD BLVD, VANCOUVER, BC",ROOFTOP,49.2588431,-123.2482067
249,Westbrook Community Centre,Leisure / Community Centres,General,Indoor,Public,1.0,"3335 WEBBER LN, VANCOUVER, BC",ROOFTOP,49.2541076,-123.2375546
252,Langara Family YMCA,Aquatics,25m pool with or without other pools,Indoor,Public,,"282 W 49TH AVE, VANCOUVER, BC",ROOFTOP,49.2255323,-123.1123927
255,Barclay Manor,Leisure / Community Centres,Seniors,Indoor,Public,,"1447 BARCLAY ST, VANCOUVER, BC",ROOFTOP,49.2872096,-123.1325898
257,Collingwood Neighbourhood House,Leisure / Community Centres,General,Indoor,Public,,"5288 JOYCE ST, VANCOUVER, BC",ROOFTOP,49.2366592,-123.0328345
258,Downtown Eastside Neighbourhood House,Leisure / Community Centres,General,Indoor,Public,,"573 E HASTINGS ST, VANCOUVER, BC",ROOFTOP,49.281546,-123.0916505
259,Ajyal Islamic Centre,Leisure / Community Centres,General,Indoor,Public,,"181 KEEFER PL #202, VANCOUVER, BC",,0.0,0.0
260,Gordon Neighbourhood House,Leisure / Community Centres,General,Indoor,Public,,"1019 BROUGHTON ST, VANCOUVER, BC",ROOFTOP,49.2857058,-123.1336593
261,Langara College Gymnasium and Lockers,Physical Recreation & Sports,Gymnasiums ,Indoor,Public,,"100 W 49TH AVE, VANCOUVER, BC",ROOFTOP,49.224025,-123.108032
263,Vancouver Racquets Club,Physical Recreation & Sports,"Racquet courts (squash, racquetball, badminton)",Indoor,Public,,"4867 ONTARIO ST, VANCOUVER, BC",ROOFTOP,49.241338,-123.1061013
265,Vancouver Lawn Tennis & Badminton Club,Aquatics,25m pool with or without other pools,Both,Private,,"1630 W 15TH AVE, VANCOUVER, BC",ROOFTOP,49.2578591,-123.141893
269,Tennis British Columbia,Physical Recreation & Sports,Tennis and/or pickleball courts ,Indoor,Private,,"112 E 3RD AVE, VANCOUVER, BC",ROOFTOP,49.2679414,-123.1023448
270,Jericho Tennis Club,Physical Recreation & Sports,"Racquet courts (squash, racquetball, badminton)",Indoor,Private,,"3837 POINT GREY RD, VANCOUVER, BC",ROOFTOP,49.2724414,-123.1894442
272,South Vancouver Neighbourhood House,Leisure / Community Centres,General,Indoor,Public,,"6470 VICTORIA DR, VANCOUVER, BC",ROOFTOP,49.225528,-123.0653392
273,Russian Community Centre,Leisure / Community Centres,General,Indoor,Public,1.0,"2114 W 4TH AVE, VANCOUVER, BC",ROOFTOP,49.2679037,-123.1533575
274,Kiwassa Neighbourhood House,Leisure / Community Centres,General,Indoor,Public,,"2425 OXFORD ST, VANCOUVER, BC",ROOFTOP,49.2859829,-123.0555911
275,Peretz Centre for Secular Jewish Culture,Leisure / Community Centres,General,Indoor,Public,,"6184 ASH ST, VANCOUVER, BC",ROOFTOP,49.2289108,-123.1175858
276,OAC Hall,Leisure / Community Centres,General,Indoor,Public,,"5350 BAILLIE ST, VANCOUVER, BC",ROOFTOP,49.23712380000001,-123.1217818
277,Slocan Community Hall,Leisure / Community Centres,General,Indoor,Public,1.0,"2750 E 29TH AVE, VANCOUVER, BC",GEOMETRIC_CENTER,49.2439952,-123.0474133
278,Vancouver Curling Club,Ice,Curling,Indoor,Public,1.0,"4575 CLANCY LORANGER WAY, VANCOUVER, BC",ROOFTOP,49.2442998,-123.1076556
279,Vancouver Family Connections,Leisure / Community Centres,General,Indoor,Public,,"2425 OXFORD ST, VANCOUVER, BC",ROOFTOP,49.2859829,-123.0555911
280,Polish Community Centre,Leisure / Community Centres,General,Indoor,Public,,"4015 FRASER ST, VANCOUVER, BC",ROOFTOP,49.2490708,-123.090514
281,Korean Community Centre,Leisure / Community Centres,General,Indoor,Public,,"1320 E HASTINGS ST, VANCOUVER, BC",ROOFTOP,49.2811709,-123.07671
282,Marpole Neighbourhood House,Leisure / Community Centres,General,Indoor,Public,,"8585 HUDSON ST, VANCOUVER, BC",RANGE_INTERPOLATED,49.2085343,-123.1343769
283,Downtown Eastside Women's Centre,Leisure / Community Centres,General,Indoor,Public,,"302 COLUMBIA ST, VANCOUVER, BC",ROOFTOP,49.2821393,-123.1020496
284,South Hill Neighbourhood Centre,Leisure / Community Centres,General,Indoor,Public,,"5888 FRASER ST, VANCOUVER, BC",ROOFTOP,49.23136,-123.0904089
285,West End Rink,Ice,Single surface,Indoor,Public,,"1750 HARO ST, VANCOUVER, BC",ROOFTOP,49.290205,-123.1363811
286,Cloverdale Curling Rink,Ice,Curling,Indoor,Public,,"6150 176 STREET, SURREY, BC",ROOFTOP,49.1142347,-122.7343301
287,South Surrey Indoor Pool,Aquatics,25m pool with or without other pools,Indoor,Public,,"14655 17 AVE, SURREY, BC",ROOFTOP,49.0333255,-122.8157273
290,Bridgeview Community Centre,Leisure / Community Centres,General,Both,Public,,"11475 126A ST, SURREY, BC",ROOFTOP,49.2112504,-122.8717627
292,Newton Recreation Centre,Aquatics,25m pool with or without other pools,Indoor,Public,,"13730 72 AVE, SURREY, BC",ROOFTOP,49.13288,-122.8420851
296,Grandview Heights Aquatic Centre,Aquatics,50m+ pool with or without other pools,Indoor,Public,,"16855 24 AVE, SURREY, BC",ROOFTOP,49.0461582,-122.7555516
299,Surrey Sport & Leisure Complex,Aquatics,50m+ pool with or without other pools,Indoor,Public,,"16555 FRASER HWY #100, SURREY, BC",,0.0,0.0
304,Guildford Recreation Centre,Aquatics,25m pool with or without other pools,Indoor,Public,,"15105 105 AVE, SURREY, BC",ROOFTOP,49.1935859,-122.8026847
308,Newton Arena,Ice,Single surface,Indoor,Public,,"7120 136B ST, SURREY, BC",ROOFTOP,49.1322298,-122.8434643
309,South Surrey Arena,Ice,Single surface,Indoor,Public,,"2199 148 ST, SURREY, BC",ROOFTOP,49.0413799,-122.812665
310,Excellent Ice,Ice,2+ surfaces,Indoor,Public,1.0,"15000 54A AVE, SURREY, BC",ROOFTOP,49.1012476,-122.8076873
311,Cloverdale Skating Club,Ice,Single surface,Indoor,Public,1.0,"6090 176 ST, SURREY, BC",ROOFTOP,49.1132463,-122.7342012
312,North Surrey Sport & Ice Complex,Ice,2+ surfaces,Indoor,Public,,"10950 126A ST, SURREY, BC",ROOFTOP,49.1481612,-122.8720549
314,South Surrey Recreation and Arts Centre,Leisure / Community Centres,General,Indoor,Public,,"14601 20 AVE, SURREY, BC",ROOFTOP,49.0398213,-122.8186066
317,Fraser Heights Recreation Centre,Leisure / Community Centres,General,Indoor,Public,,"10588 160 ST, SURREY, BC",ROOFTOP,49.1949992,-122.7771404
320,Chuck Bailey Recreation Centre,Leisure / Community Centres,General,Indoor,Public,,"13458 107A AVE, SURREY, BC",ROOFTOP,49.1969064,-122.8493325
324,Cloverdale Recreation Centre,Leisure / Community Centres,General,Indoor,Public,,"6188 176 ST, SURREY, BC",ROOFTOP,49.1152228,-122.7341399
327,Don Christian Recreation Centre,Leisure / Community Centres,General,Indoor,Public,,"6220 184 ST, SURREY, BC",ROOFTOP,49.11536599999999,-122.712288
328,Fleetwood Community Centre,Leisure / Community Centres,General,Indoor,Public,,"15996 84 AVE, SURREY, BC",ROOFTOP,49.1552275,-122.7797924
331,Kensington Prairie Community Centre,Leisure / Community Centres,Youth,Indoor,Public,,"16824 32 AVE, SURREY, BC",ROOFTOP,49.0598683,-122.7553195
333,Clayton Hall,Leisure / Community Centres,General,Indoor,Public,,"18513 70 AVE, SURREY, BC",ROOFTOP,49.1300447,-122.7091312
334,The Tennis Centre,Physical Recreation & Sports,Tennis and/or pickleball courts ,Both,Public,,"5891 144 ST, SURREY, BC",ROOFTOP,49.109772,-122.8236
336,Sullivan's Community Hall,Leisure / Community Centres,General,Indoor,Public,,"6306 152 ST, SURREY, BC",ROOFTOP,49.1172743,-122.8005288
337,Sunnyside Community Hall,Leisure / Community Centres,General,Indoor,Public,,"1845 154 ST, SURREY, BC",ROOFTOP,49.0358069,-122.7961525
338,Newton Youth Hub,Leisure / Community Centres,Youth,Indoor,Public,,"13479 76 AVE #114, SURREY, BC",,0.0,0.0
339,Kennedy Community Hall,Leisure / Community Centres,General,Indoor,Public,,"8870 120 ST, SURREY, BC",ROOFTOP,49.1644079,-122.8900263
340,Canlan Ice Sports/Scotia Barn,Ice,2+ surfaces,Indoor,Private,,"6501 SPROTT ST, BURNABY, BC",ROOFTOP,49.2511125,-122.9694595
342,Kensington Park Rink,Ice,Single surface,Indoor,Public,,"6159 CURTIS ST, BURNABY, BC",ROOFTOP,49.2758578,-122.9739257
343,Bill Copeland Sports Centre,Ice,2+ surfaces,Indoor,Private,,"3676 KENSINGTON AVE, BURNABY, BC",ROOFTOP,49.25196510000001,-122.9654182
344,Burnaby Lake Arena,Ice,Single surface,Indoor,Public,,"3676 KENSINGTON AVE; BURNABY, BRITISH COLUMBIA",ROOFTOP,49.25196510000001,-122.9654182
345,C.G. Brown Memorial Pool,Aquatics,25m pool with or without other pools,Indoor,Public,,"3702 KENSINGTON AVE, BURNABY, BC",ROOFTOP,49.2505967,-122.9658123
348,Eileen Dailly Leisure Pool & Fitness Centre,Aquatics,25m pool with or without other pools,Indoor,Public,,"240 WILLINGDON AVE, BURNABY, BC",ROOFTOP,49.2832339,-123.002392
351,Bonsor Recreation Complex,Aquatics,25m pool with or without other pools,Indoor,Public,,"6550 BONSOR AVE, BURNABY, BC",ROOFTOP,49.2242567,-122.9967536
356,Confederation Park,Leisure / Community Centres,Seniors,Indoor,Public,,"4709 PANDORA ST, BURNABY, BC",GEOMETRIC_CENTER,49.2848109,-122.9991398
360,Cameron Recreation Complex,Physical Recreation & Sports,Fitness centres / areas ,Indoor,Public,,"9523 CAMERON ST, BURNABY, BC",GEOMETRIC_CENTER,49.2538998,-122.8987337
364,BCIT Recreation Services,Physical Recreation & Sports,Fitness centres / areas ,Indoor,Public,,"3700, WILLINGDON AVE, BURNABY, BC",ROOFTOP,49.2501606,-123.0009816
367,Burnaby Tennis Club,Physical Recreation & Sports,Tennis and/or pickleball courts ,Both,Both,,"3890 KENSINGTON AVE, BURNABY, BC",ROOFTOP,49.2495242,-122.966057
368,Wesburn Community Centre,Leisure / Community Centres,General,Indoor,Public,,"4781 PARKWOOD AVE, BURNABY, BC",GEOMETRIC_CENTER,49.2418704,-123.0120671
369,Willingdon Community Centre,Leisure / Community Centres,General,Indoor,Public,,"1491 CARLETON AVE, BURNABY, BC",GEOMETRIC_CENTER,49.2728903,-123.0127584
372,Confederation Community Centre,Leisure / Community Centres,Seniors,Indoor,Public,,"4585 ALBERT ST, BURNABY, BC",ROOFTOP,49.2823107,-123.0012576
374,Brentwood Community Resource Centre,Leisure / Community Centres,General,Indoor,Public,,"2055 ROSSER AVE, BURNABY, BC",ROOFTOP,49.2661932,-123.0063858
375,Edmonds Community Centre,Leisure / Community Centres,General,Indoor,Public,,"7433 EDMONDS ST, BURNABY, BC",ROOFTOP,49.2209489,-122.9481954
381,Bonsor 55+ Seniors Centre,Leisure / Community Centres,Seniors,Indoor,Public,,"6533 NELSON AVE, BURNABY, BC",ROOFTOP,49.2242723,-122.9947027
382,Burnaby Community Services,Leisure / Community Centres,General,Indoor,Public,,"2055 ROSSER AVE, BURNABY, BC",ROOFTOP,49.2661932,-123.0063858
383,Charles Rummel Centre,Leisure / Community Centres,General,Indoor,Public,,"3630 LOZELLS AVE, BURNABY, BC",ROOFTOP,49.2522359,-122.9414669
384,Scandinavian Community Centre,Leisure / Community Centres,General,Indoor,Public,,"6540 THOMAS ST, BURNABY, BC",ROOFTOP,49.24777539999999,-122.9679835
385,Burnaby Winter Club,Ice,2+ surfaces,Indoor,Public,1.0,"4990 CANADA WAY, BURNABY, BC",ROOFTOP,49.2431362,-122.9691591
386,Dynamo Swim Club,Aquatics,25m pool with or without other pools,Indoor,Private,,"3702 KENSINGTON AVE, BURNABY, BC",ROOFTOP,49.2505967,-122.9658123
387,Creekside Youth Centre,Leisure / Community Centres,Youth,Indoor,Public,,"2720 BEAVERBROOK CRESCENT, BURNABY, BC",ROOFTOP,49.2595361,-122.9029453
390,Greentree Community Centre,Leisure / Community Centres,General,Indoor,Public,1.0,"4295 GARDEN GROVE DR, BURNABY, BC",ROOFTOP,49.245903,-122.997226
393,Vancouver Madinah,Leisure / Community Centres,General,Indoor,Public,,"5757 BERESFORD ST, BURNABY, BC",ROOFTOP,49.2187231,-122.9795815
394,South Burnaby Neighbourhood House,Leisure / Community Centres,General,Indoor,Public,,"4460 BERESFORD ST, BURNABY, BC",ROOFTOP,49.2253401,-123.0042517
395,Richmond Ice Centre,Ice,2+ surfaces,Indoor,Public,,"14140 TRIANGLE RD, RICHMOND, BC",ROOFTOP,49.1361826,-123.0666353
396,Richmond Curling Centre,Ice,Curling,Indoor,Private,,"5540 HOLLYBRIDGE WAY, RICHMOND, BC",ROOFTOP,49.17430700000001,-123.146282
397,South Arm Community Centre,Leisure / Community Centres,General,Both,Public,,"8880 WILLIAMS RD, RICHMOND, BC",ROOFTOP,49.14031259999999,-123.1277383
400,Steveston Community Centre,Leisure / Community Centres,General,Both,Public,,"4111 MONCTON STREET, RICHMOND, BC",ROOFTOP,49.1254527,-123.1786576
405,City Centre Community Centre,Leisure / Community Centres,General,Indoor,Public,,"5900 MINORU BLVD #105, RICHMOND, BC",,0.0,0.0
407,Lang Centre,Leisure / Community Centres,General,Indoor,Public,,"8279 SABA RD SUITE 140, RICHMOND, BC",ROOFTOP,49.1690744,-123.1327236
408,Vancouver International Tennis Academy,Physical Recreation & Sports,Tennis and/or pickleball courts ,Both,Private,,"11111 HORSESHOE WAY, RICHMOND, BC",ROOFTOP,49.1314649,-123.0937797
413,Richmond Tennis Club,Physical Recreation & Sports,Tennis and/or pickleball courts ,Both,Both,,"6820 GILBERT RD, RICHMOND, BC",ROOFTOP,49.164153,-123.147119
414,Minoru Aquatic Centre,Aquatics,25m pool with or without other pools,Indoor,Public,,"7560 MINORU GATE, RICHMOND, BC",ROOFTOP,49.1633671,-123.1420191
417,Minoru Centre for Active Living,Leisure / Community Centres,Seniors,Indoor,Public,,"7191 GRANVILLE AVE, RICHMOND, BC",ROOFTOP,49.163231,-123.1450486
419,Minoru Arenas,Ice,2+ surfaces,Indoor,Public,,"7551 MINORU GATE, RICHMOND, BC",ROOFTOP,49.1640874,-123.142556
420,Thompson Community Centre,Leisure / Community Centres,General,Indoor,Public,,"5151 GRANVILLE AVE, RICHMOND, BC",ROOFTOP,49.16334519999999,-123.1655535
423,Cambie Community Centre,Leisure / Community Centres,General,Indoor,Public,,"12800 CAMBIE RD, RICHMOND, BC",ROOFTOP,49.1837264,-123.0816757
426,Hamilton Community Centre,Leisure / Community Centres,General,Indoor,Public,,"5140 SMITH DR, RICHMOND, BC",ROOFTOP,49.175919,-122.965356
428,Shia Muslim Community Centre,Leisure / Community Centres,General,Indoor,Public,,"8580 NO 5 RD, RICHMOND, BC",ROOFTOP,49.1508917,-123.0905354
429,Richmond Olympic Oval,Ice,2+ surfaces,Indoor,Public,,"6111 RIVER RD, RICHMOND, BC",ROOFTOP,49.1747431,-123.1515448
434,Watermania,Aquatics,50m+ pool with or without other pools,Indoor,Public,,"14300 ENTERTAINMENT BLVD, RICHMOND, BC",ROOFTOP,49.1358937,-123.0631315
438,Marina's Swim School ,Aquatics,25m pool with or without other pools,Indoor,Public,1.0,"1751 SAVAGE RD, RICHMOND, BC",ROOFTOP,49.2014294,-123.0605251
439,West Richmond Community Centre,Leisure / Community Centres,General,Indoor,Public,,"9180 NO 1 RD, RICHMOND, BC",ROOFTOP,49.14625230000001,-123.1783566
443,Sea Island Community Centre,Leisure / Community Centres,General,Indoor,Public,,"7140 MILLER RD, RICHMOND, BC",ROOFTOP,49.1916933,-123.1444712
445,Badminton Vancouver,Physical Recreation & Sports,"Racquet courts (squash, racquetball, badminton)",Indoor,Public,1.0,"110-13100 MITCHELL RD, RICHMOND, BC",GEOMETRIC_CENTER,49.2050315,-123.0803092
446,Stage 18 Badminton Centre,Physical Recreation & Sports,"Racquet courts (squash, racquetball, badminton)",Indoor,Public,1.0,"2351 NO 6 RD #170, RICHMOND, BC",,0.0,0.0
447,Richmond Pro Badminton Centre,Physical Recreation & Sports,"Racquet courts (squash, racquetball, badminton)",Indoor,Private,,"5800 MINORU BLVD #130, RICHMOND, BC",,0.0,0.0
448,Poirier Sport & Leisure Complex,Ice,Single surface,Indoor,Public,,"633 POIRIER ST, COQUITLAM, BC",ROOFTOP,49.2547132,-122.8462243
453,Smiling Creek Activity Centre,Leisure / Community Centres,General,Indoor,Public,,"3456 PRINCETON AVE, COQUITLAM, BC",ROOFTOP,49.2980668,-122.7503512
455,City Centre Aquatic Complex,Aquatics,50m+ pool with or without other pools,Indoor,Public,,"1210 PINETREE WAY, COQUITLAM, BC",ROOFTOP,49.28601,-122.793331
459,Planet Ice ,Ice,2+ surfaces,Indoor,Public,,"2300 ROCKET WAY, COQUITLAM, BC",ROOFTOP,49.230809,-122.82803
461,Centennial Activity Centre,Physical Recreation & Sports,Gymnasiums ,Indoor,Public,,"578 POIRIER ST, COQUITLAM, BC",ROOFTOP,49.2526723,-122.8469517
463,Place Maillardville Community Centre,Leisure / Community Centres,General,Indoor,Public,,"1200 CARTIER AVE #1200, COQUITLAM, BC",,0.0,0.0
464,Poirier Community Centre,Leisure / Community Centres,General,Indoor,Public,,"630 POIRIER ST, COQUITLAM, BC",ROOFTOP,49.2546494,-122.8472666
466,Glen Pine Pavilion,Leisure / Community Centres,General,Indoor,Public,,"1200 GLEN PINE COURT, COQUITLAM, BC",ROOFTOP,49.283191,-122.7950109
468,West Coast Swim School,Aquatics,25m pool with or without other pools,Indoor,Public,,"631 LOUGHEED HWY, COQUITLAM, BC",ROOFTOP,49.2423599,-122.8845004
469,Dogwood Pavilion,Leisure / Community Centres,General,Indoor,Public,,"1655 WINSLOW AVE, COQUITLAM, BC",ROOFTOP,49.2542081,-122.8471909
470,Chimo Aquatic and Fitness Centre,Aquatics,25m pool with or without other pools,Indoor,Public,1.0,633 POIRIER ST,RANGE_INTERPOLATED,37.8470933,-122.2655782
474,Summit Community Centre,Leisure / Community Centres,General,Indoor,Public,,"1450 PARKWAY BLVD, COQUITLAM, BC",ROOFTOP,49.29550099999999,-122.8064909
476,Pinetree Community Centre,Leisure / Community Centres,General,Indoor,Public,,"1260 PINETREE WAY, COQUITLAM, BC",ROOFTOP,49.28944629999999,-122.7916051
479,Canlan Ice Sports,Ice,2+ surfaces,Indoor,Private,,"5700 LANGLEY BYPASS, LANGLEY CITY, BC",ROOFTOP,49.10607599999999,-122.6416954
480,Walnut Grove Community Centre,Aquatics,50m+ pool with or without other pools,Indoor,Public,,"8889 WALNUT GROVE DR, LANGLEY TWP, BC",ROOFTOP,49.16366,-122.6414125
484,Aldergrove Kinsmen Community Centre,Leisure / Community Centres,General,Indoor,Public,,"26770 29 AVE, LANGLEY TWP, BC",ROOFTOP,49.055212,-122.482885
485,Aldergrove Credit Union Community Centre,Ice,Single surface,Indoor,Public,,"27032 FRASER HWY, ALDERGROVE, BC",ROOFTOP,49.05793389999999,-122.4748936
487,Tilbury Ice,Ice,Single surface,Indoor,Public,,"7187 VANTAGE WAY, DELTA, BC",ROOFTOP,49.1360009,-123.0256449
488,Delta Thistle Curling Club,Ice,Curling,Indoor,Public,,"11415 84 AVE, DELTA, BC",ROOFTOP,49.1570784,-122.9059379
489,Great Pacific Forum Planet Ice Delta,Ice,2+ surfaces,Indoor,Public,,"10388 NORDEL CT, DELTA, BC",ROOFTOP,49.1486494,-122.9363338
490,North Delta Recreation Centre,Ice,2+ surfaces,Indoor,Public,,"11415 84 AVE, DELTA, BC",ROOFTOP,49.1570784,-122.9059379
494,Sungod Recreation Centre,Ice,Single surface,Indoor,Public,,"7815 112 ST, DELTA, BC",ROOFTOP,49.14562300000001,-122.9125991
499,Tunnel Town Curling Club,Ice,Curling,Indoor,Both,,"1720 56 ST, DELTA, BC",GEOMETRIC_CENTER,49.0364845,-123.066995
500,Sunshine Hills Tennis Club,Physical Recreation & Sports,Tennis and/or pickleball courts ,Both,Private,,"6748 CARNCROSS CRESCENT, DELTA, BC",GEOMETRIC_CENTER,49.1248596,-122.9125219
501,Boys & Girls Clubs of South Coast BC,Leisure / Community Centres,Youth,Indoor,Public,,"11339 84 AVE, DELTA, BC",ROOFTOP,49.1563369,-122.9086057
502,Ladner Community Centre,Leisure / Community Centres,General,Indoor,Public,,"4734 51 ST, DELTA, BC",ROOFTOP,49.0890075,-123.082069
504,Ladner Leisure Centre,Aquatics,25m pool with or without other pools,Indoor,Public,,"4600 CLARENCE TAYLOR CRESCENT, DELTA, BC",ROOFTOP,49.0863379,-123.0583521
509,Winskill Aquatic and Fitness Centre,Aquatics,25m pool with or without other pools,Indoor,Public,,"5575 9 AVE, DELTA, BC",ROOFTOP,49.0199726,-123.0709939
512,South Delta Recreation Centre,Ice,Single surface,Indoor,Public,,"1720 56 ST, DELTA, BC",GEOMETRIC_CENTER,49.0364845,-123.066995
515,McKee Senior's Recreation Centre,Leisure / Community Centres,Seniors,Indoor,Public,,"5155 47 AVE, DELTA, BC",ROOFTOP,49.0885322,-123.0812093
517,Delbrook Community Recreation Centre,Leisure / Community Centres,General,Indoor,Public,,"851 W QUEENS RD, NORTH VANCOUVER, BC",ROOFTOP,49.3361121,-123.0918966
523,North Shore Winter Club,Ice,2+ surfaces,Indoor,Private,,"1325 KEITH RD E, NORTH VANCOUVER, BC",ROOFTOP,49.3114336,-123.0373038
526,Seylynn Community Recreation Centre,Leisure / Community Centres,General,Indoor,Public,,"625 MOUNTAIN HWY, NORTH VANCOUVER, BC",ROOFTOP,49.311854,-123.0328828
528,John Braithwaite Community Centre,Leisure / Community Centres,General,Indoor,Public,,"145 W 1ST ST, NORTH VANCOUVER, BC",ROOFTOP,49.312323,-123.0808707
533,Harry Jerome Community Recreation Centre,Leisure / Community Centres,General,Indoor,Public,,"123 23RD ST E, NORTH VANCOUVER, BC",ROOFTOP,49.3298116,-123.0709021
537,Chief Joe Mathias Centre,Leisure / Community Centres,General,Indoor,Public,,"100 LOWER CAPILANO RD, NORTH VANCOUVER, BC",ROOFTOP,49.3178109,-123.1243153
538,Mickey McDougall Community Recreation Centre,Physical Recreation & Sports,Gymnasiums ,Indoor,Public,,"240 23RD ST E, NORTH VANCOUVER, BC",ROOFTOP,49.3307005,-123.0674157
540,Karen Magnussen Community Recreation Centre,Aquatics,25m pool with or without other pools,Indoor,Public,,"2300 KIRKSTONE RD, NORTH VANCOUVER, BC",ROOFTOP,49.3306856,-123.0459827
542,Ron Andrews Community Recreation Centre,Aquatics,25m pool with or without other pools,Indoor,Public,,"931 LYTTON ST, NORTH VANCOUVER, BC",ROOFTOP,49.3139524,-123.000767
545,Lynn Valley Community Recreation Centre,Physical Recreation & Sports,Fitness centres / areas ,Indoor,Public,,"3590 MOUNTAIN HWY, NORTH VANCOUVER, BC",ROOFTOP,49.341232,-123.0377061
546,Parkgate Community Centre,Leisure / Community Centres,General,Indoor,Public,1.0,"3625 BANFF CT, NORTH VANCOUVER, BC",ROOFTOP,49.3178742,-122.9708249
549,North Vancouver Tennis Centre,Physical Recreation & Sports,Tennis and/or pickleball courts ,Indoor,Public,,"280 LLOYD AVE, NORTH VANCOUVER, BC",ROOFTOP,49.31975,-123.104425
550,Capilano Tennis Club,Physical Recreation & Sports,Tennis and/or pickleball courts ,Both,Private,,"2500 CAPILANO RD, NORTH VANCOUVER, BC",GEOMETRIC_CENTER,49.3332128,-123.1163478
551,North Shore Neighbourhood House,Leisure / Community Centres,General,Indoor,Public,,"225 2ND ST E, NORTH VANCOUVER, BC",ROOFTOP,49.3107815,-123.0739512
553,Tsleil-Waututh Cultural and Recreation Centre,Leisure / Community Centres,General,Indoor,Public,,"3010 SLEIL WAUTUTH RD, NORTH VANCOUVER, BC",ROOFTOP,49.3095642,-122.9884235
555,LVSS at Mollie NYE House,Leisure / Community Centres,General,Indoor,Public,1.0,"940 LYNN VALLEY RD, NORTH VANCOUVER, BC",ROOFTOP,49.332007,-123.0482245
556,Memorial Community Recreation Centre,Leisure / Community Centres,General,Indoor,Public,,"123 EAST 23RD STREET, NORTH VANCOUVER, BC",ROOFTOP,49.3298116,-123.0709021
558,Golden Ears Winter Club,Ice,Curling,Indoor,Private,,"23580 105 AVE, MAPLE RIDGE, BC",ROOFTOP,49.194551,-122.566611
559,Planet Ice - Maple Ridge,Ice,2+ surfaces,Indoor,Public,,"23588 105 AVE, MAPLE RIDGE, BC",ROOFTOP,49.193836,-122.5658851
560,CEED Centre Society,Leisure / Community Centres,General,Indoor,Public,1.0,"11739 223 ST, MAPLE RIDGE, BC",ROOFTOP,49.215304,-122.6048391
561,Greg Moore Youth Centre,Leisure / Community Centres,Youth,Indoor,Public,,"11925 HANEY PL, MAPLE RIDGE, BC",ROOFTOP,49.2186487,-122.6002057
562,Maple Ridge Leisure Centre,Aquatics,25m pool with or without other pools,Indoor,Public,,"11925 HANEY PL, MAPLE RIDGE, BC",ROOFTOP,49.2186487,-122.6002057
567,Ruskin Community Hall,Leisure / Community Centres,General,Indoor,Public,1.0,"28395 96 AVE, MAPLE RIDGE, BC",ROOFTOP,49.1769547,-122.4347808
568,Thornhill Community Hall,Leisure / Community Centres,General,Indoor,Public,,"26007 98 AVE, MAPLE RIDGE, BC",ROOFTOP,49.180993,-122.500908
569,Maple Ridge Seniors Activity Centre,Leisure / Community Centres,Seniors,Indoor,Public,,"12150 224 ST, MAPLE RIDGE, BC",ROOFTOP,49.2233331,-122.6002128
570,Queen's Park Arena,Ice,Single surface,Indoor,Private,,"1ST ST &, 3RD AVE, NEW WESTMINSTER, BC",ROOFTOP,36.307721,-95.302866
572,Moody Park Arena,Ice,Single surface,Indoor,Public,,"701 8TH AVE, NEW WESTMINSTER, BC",ROOFTOP,49.215566,-122.926201
573,Canada Games Pool,Aquatics,25m pool with or without other pools,Indoor,Public,,"65 E SIXTH AVE, NEW WESTMINSTER, BC",GEOMETRIC_CENTER,49.22149479999999,-122.9069159
575,Centennial Community Centre,Leisure / Community Centres,General,Indoor,Public,,"65 E SIXTH AVE, NEW WESTMINSTER, BC",GEOMETRIC_CENTER,49.22149479999999,-122.9069159
577,Century House,Leisure / Community Centres,Seniors,Indoor,Public,,"620 8TH ST, NEW WESTMINSTER, BC",ROOFTOP,49.21171589999999,-122.9261096
579,Queensborough Community Centre,Leisure / Community Centres,General,Indoor,Public,,"920 EWEN AVE, NEW WESTMINSTER, BC",ROOFTOP,49.185932,-122.9435259
581,Royal City Curling Club,Ice,Curling,Indoor,Public,1.0,"75 6 AVE E, NEW WESTMINSTER, BC",ROOFTOP,49.221686,-122.905832
582,New West Youth Centre,Leisure / Community Centres,Youth,Indoor,Public,,"620 8TH ST, NEW WESTMINSTER, BC",ROOFTOP,49.21171589999999,-122.9261096
584,New Westminster Tennis Club,Physical Recreation & Sports,Tennis and/or pickleball courts ,Both,Private,,"305 ROYAL AVE, NEW WESTMINSTER, BC",ROOFTOP,49.2081159,-122.9081896
585,Port Coquitlam Community Centre,Leisure / Community Centres,General,Indoor,Public,,"2150 WILSON AVE, PORT COQUITLAM, BC",ROOFTOP,49.2598603,-122.7767353
590,Hyde Creek Recreation Centre,Aquatics,25m pool with or without other pools,Indoor,Public,,"1379 LAURIER AVE, PORT COQUITLAM, BC",ROOFTOP,49.275501,-122.7509744
595,Shuttlesport Badminton Academy,Physical Recreation & Sports,"Racquet courts (squash, racquetball, badminton)",Indoor,Private,,"550 SHERLING PL #1120, PORT COQUITLAM, BC",,0.0,0.0
596,Ice Arena - West Vancouver,Ice,Single surface,Indoor,Public,,"786 22ND ST, WEST VANCOUVER, BC",ROOFTOP,49.3320701,-123.1703291
597,Hollyburn Country Club,Ice,2+ surfaces,Indoor,Private,,"950 CROSS CREEK ROAD, WEST VANCOUVER, BC",GEOMETRIC_CENTER,49.34375559999999,-123.1437861
602,West Vancouver Aquatic Centre,Aquatics,25m pool with or without other pools,Indoor,Public,,"2121 MARINE DR, WEST VANCOUVER, BC",ROOFTOP,49.3314067,-123.1703167
605,West Vancouver Community Centre,Leisure / Community Centres,General,Indoor,Public,,"2121 MARINE DR, WEST VANCOUVER, BC",ROOFTOP,49.3314067,-123.1703167
608,Gleneagles Community Centre,Leisure / Community Centres,General,Indoor,Public,,"6262 MARINE DR, WEST VANCOUVER, BC",ROOFTOP,49.3640177,-123.2777929
611,West Vancouver Tennis Club,Physical Recreation & Sports,Tennis and/or pickleball courts ,Both,Private,,"821 21ST ST, WEST VANCOUVER, BC",ROOFTOP,49.3321114,-123.16832
612,Seniors' Activity Centre,Leisure / Community Centres,Seniors,Indoor,Public,,"695 21ST ST, WEST VANCOUVER, BC",ROOFTOP,49.3309479,-123.1688452
613,Evergreen Squash Club,Physical Recreation & Sports,"Racquet courts (squash, racquetball, badminton)",Indoor,Private,,"315 KLAHANIE COURT, WEST VANCOUVER, BC",ROOFTOP,49.3263489,-123.124807
615,Port Moody Recreation Complex & Weight Room,Ice,Curling,Indoor,Public,,"300 IOCO RD, PORT MOODY, BC",GEOMETRIC_CENTER,49.2833853,-122.8314168
620,Glenayre Community Centre,Leisure / Community Centres,General,Indoor,Public,,"492 GLENCOE DR, PORT MOODY, BC",ROOFTOP,49.2747839,-122.8875771
621,Kyle Centre,Leisure / Community Centres,General,Indoor,Public,,"125 KYLE ST, PORT MOODY, BC",ROOFTOP,49.27597189999999,-122.8575604
622,Heritage Mountain Community Centre,Leisure / Community Centres,General,Indoor,Public,,"200 PANORAMA PL, PORT MOODY, BC",ROOFTOP,49.3017444,-122.8301661
623,Langley Curling Club ,Ice,Curling,Indoor,Private,,"20699 42 AVE, LANGLEY CITY, BC",ROOFTOP,49.0788972,-122.6517063
624,Langley Figure Skating Club,Ice,Single surface,Indoor,Private,,"20699 42 AVE, LANGLEY CITY, BC",ROOFTOP,49.0788972,-122.6517063
625,Langley Sportsplex,Ice,Single surface,Indoor,Public,1.0,"20165 91A AVE #100, LANGLEY CITY, BC",,0.0,0.0
627,National Hockey Training Centre,Ice,Single surface,Indoor,Public,1.0,"20740 MUFFORD CRESCENT #110, LANGLEY CITY, BC",,0.0,0.0
628,Douglas Recreation Centre,Physical Recreation & Sports,Fitness centres / areas ,Indoor,Public,,"20550 DOUGLAS CRESCENT, LANGLEY CITY, BC",ROOFTOP,49.1024149,-122.652825
629,Willowbrook Recreation Centre,Physical Recreation & Sports,Fitness centres / areas ,Indoor,Public,,"20338 65 AVE, LANGLEY CITY, BC",ROOFTOP,49.1203699,-122.6592704
630,Willoughby Community Centre,Physical Recreation & Sports,Fitness centres / areas ,Indoor,Public,,"7888 200 ST, LANGLEY CITY, BC",ROOFTOP,49.1460046,-122.6662583
631,W.C. Blair Recreation Centre,Aquatics,25m pool with or without other pools,Indoor,Public,,"22200 FRASER HWY, LANGLEY CITY, BC",ROOFTOP,49.0912268,-122.609776
634,Timms Community Centre,Physical Recreation & Sports,Gymnasiums ,Indoor,Public,,"20399 DOUGLAS CRESCENT, LANGLEY CITY, BC",ROOFTOP,49.10394369999999,-122.6570497
636,George Preston Recreation Centre,Ice,Single surface,Indoor,Public,,"20699 42 AVE, LANGLEY CITY, BC",ROOFTOP,49.0788972,-122.6517063
637,Langley Senior Resources Society,Leisure / Community Centres,Seniors,Indoor,Public,,"20605 51B AVE, LANGLEY CITY, BC",ROOFTOP,49.0974495,-122.6508082
638,Langley Tennis Centre,Physical Recreation & Sports,Tennis and/or pickleball courts ,Indoor,Public,1.0,"7888 200 ST, LANGLEY CITY, BC",ROOFTOP,49.1460046,-122.6662583
639,Peace Arch Curling Club,Ice,Curling,Indoor,Public,1.0,"1475 ANDERSON ST, WHITE ROCK, BC",ROOFTOP,49.0287965,-122.8173146
640,White Rock South Surrey Skating Club,Ice,Single surface,Indoor,Public,1.0,"1544 FOSTER ST, WHITE ROCK, BC",ROOFTOP,49.0306936,-122.8038578
641,Centennial Arena,Ice,Single surface,Indoor,Public,,"14600 NORTH BLUFF RD, WHITE ROCK, BC",GEOMETRIC_CENTER,49.0292238,-122.8175163
643,White Rock Community Centre,Leisure / Community Centres,General,Indoor,Public,,"15154 RUSSELL AVE, WHITE ROCK, BC",ROOFTOP,49.0290134,-122.8022107
644,Kent Street Activity Centre,Leisure / Community Centres,General,Indoor,Public,,"1475 KENT ST, WHITE ROCK, BC",ROOFTOP,49.0289149,-122.7849962
645,Horst and Emmy Werner Centre for Active Living,Leisure / Community Centres,General,Indoor,Public,,"1475 ANDERSON ST, WHITE ROCK, BC",ROOFTOP,49.0287965,-122.8173146
646,ThirdSpace,Leisure / Community Centres,General,Indoor,Public,1.0,"1381 GEORGE ST #1, WHITE ROCK, BC",,0.0,0.0
647,Pitt Meadows Arena Complex,Ice,2+ surfaces,Indoor,Public,1.0,"11435 BONSON RD, PITT MEADOWS, BC",ROOFTOP,49.210138,-122.6810181
648,South Bonson Community Centre,Leisure / Community Centres,General,Indoor,Public,,"10932 BARNSTON VIEW RD, PITT MEADOWS, BC",ROOFTOP,49.2017956,-122.6802009
649,Pitt Meadows Family Recreation Centre,Physical Recreation & Sports,Fitness centres / areas ,Indoor,Public,,"12027 HARRIS RD, PITT MEADOWS, BC",ROOFTOP,49.22098829999999,-122.6915058
652,Bowen Island Community Recreation,Leisure / Community Centres,General,Indoor,Public,1.0,"1041 MT GARDNER RD, BOWEN ISLAND, BC",ROOFTOP,49.3814217,-123.3422529
654,Cedar Hill Recreation Centre,Physical Recreation & Sports,Tennis and/or pickleball courts ,Indoor,Public,,"3220 CEDAR HILL ROAD, VICTORIA, BC",ROOFTOP,48.4498313,-123.3439533
658,G.R. Pearkes Recreation Centre,Physical Recreation & Sports,Fitness centres / areas ,Indoor,Public,,"3100 TILLICUM ROAD, VICTORIA, BC",ROOFTOP,48.4539571,-123.3989464
663,Gordon Head Recreation Centre,Aquatics,25m pool with or without other pools,Indoor,Public,,"4100 LAMBRICK PARK WAY, VICTORIA, BC",GEOMETRIC_CENTER,48.4775243,-123.3290293
667,Saanich Commonwealth Place,Aquatics,25m pool with or without other pools,Indoor,Public,,"4636 ELK LAKE DRIVE, VICTORIA, BC",ROOFTOP,48.50132079999999,-123.3887024
672,Saanich Skating Club,Ice,Single surface,Indoor,Public,1.0,"3100 TILLICUM RD, VICTORIA, BC",ROOFTOP,48.4539571,-123.3989464
673,Saanich Neighbourhood Place,Leisure / Community Centres,General,Indoor,Public,1.0,"3100 TILLICUM RD, VICTORIA, BC",ROOFTOP,48.4539571,-123.3989464
674,Royal Oak Neighbourhood House,Leisure / Community Centres,General,Indoor,Public,1.0,"4525 W SAANICH RD, VICTORIA, BC",ROOFTOP,48.49595830000001,-123.3892767
675,Braefoot Community Association,Leisure / Community Centres,Youth,Indoor,Public,,"1359 MCKENZIE AVE, VICTORIA, BC",GEOMETRIC_CENTER,48.4710828,-123.3478812
676,Rogers Society,Leisure / Community Centres,General,Indoor,Public,,"765 ROGERS AVE, VICTORIA, BC",ROOFTOP,48.4758102,-123.3808808
678,Victoria Swim Lab,Aquatics,25m pool with or without other pools,Indoor,Private,,"1655 ASH RD, VICTORIA, BC",ROOFTOP,48.4914238,-123.3253632
679,Royal Oak Women's Institute Hall,Physical Recreation & Sports,Fitness centres / areas ,Indoor,Public,1.0,"4516 W SAANICH RD, VICTORIA, BC",ROOFTOP,48.4953313,-123.3894494
680,Saanich Tennis Club,Physical Recreation & Sports,Tennis and/or pickleball courts ,Indoor,Private,,"4301 VIEWMONT AVE, VICTORIA, BC",RANGE_INTERPOLATED,48.4900558,-123.3914411
681,Cordova Bay Community Club,Physical Recreation & Sports,"Racquet courts (squash, racquetball, badminton)",Indoor,Public,,"941 SUTCLIFFE RD, VICTORIA, BC",ROOFTOP,48.523597,-123.3707359
684,Saanich Silver Threads Centre,Physical Recreation & Sports,Gymnasiums ,Indoor,Public,,"286 HAMPTON ROAD, VICTORIA, BC",ROOFTOP,48.4547295,-123.3920422
686,Cordova Bay 55 Plus,Leisure / Community Centres,Seniors,Indoor,Public,,"#1-5238 CORDOVA BAY ROAD, VICTORIA, BC",,0.0,0.0
688,Goward House,Leisure / Community Centres,General,Indoor,Public,,"2495 ARBUTUS ROAD, VICTORIA B.C",ROOFTOP,48.4668059,-123.2969023
689,Les Passmore Centre,Physical Recreation & Sports,Gymnasiums ,Indoor,Public,,"286 HAMPTON ROAD, VICTORIA B.C",ROOFTOP,48.4547295,-123.3920422
691,Save-On-Foods Memorial Centre,Ice,Single surface,Indoor,Public,1.0,"1925 BLANSHARD ST, VICTORIA, BC",ROOFTOP,48.4316374,-123.3607382
693,Crystal Pool & Fitness Centre,Aquatics,50m+ pool with or without other pools,Indoor,Public,,"2275 QUADRA ST, VICTORIA, BC",ROOFTOP,48.4334794,-123.3577789
696,Fernwood Community Centre,Leisure / Community Centres,General,Indoor,Public,,"1240 GLADSTONE AVE, VICTORIA, BC",ROOFTOP,48.4307689,-123.3482424
698,Garry Oak Room,Leisure / Community Centres,General,Indoor,Public,1.0,"1341 THURLOW RD, VICTORIA, BC",ROOFTOP,48.41595,-123.347554
699,Quadra Village Community Centre,Leisure / Community Centres,General,Indoor,Public,1.0,"901 KINGS RD, VICTORIA, BC",ROOFTOP,48.436989,-123.3611764
701,Victoria West Community Centre,Leisure / Community Centres,General,Indoor,Public,,"521 CRAIGFLOWER RD, VICTORIA, BC",ROOFTOP,48.437284,-123.388331
703,James Bay Community School Centre,Physical Recreation & Sports,Gymnasiums ,Indoor,Public,,"140 OSWEGO ST, VICTORIA, BC",ROOFTOP,48.4171359,-123.3796264
704,Fairfield Gonzales Community Association,Leisure / Community Centres,General,Indoor,Public,,"1330 FAIRFIELD ROAD, VICTORIA, BC",ROOFTOP,48.415119,-123.347592
707,James Bay New Horizons Society,Physical Recreation & Sports,Fitness centres / areas ,Indoor,Public,,"234 MENZIES ST, VICTORIA, BC",ROOFTOP,48.4162911,-123.3738361
708,Cook Street Village Activity Centre,Leisure / Community Centres,General,Indoor,Public,1.0,"380 COOK ST #1, VICTORIA, BC",,0.0,0.0
710,Burnside Gorge Community Centre,Leisure / Community Centres,General,Indoor,Public,,"471 CECELIA RD, VICTORIA, BC",ROOFTOP,48.4442173,-123.3784327
712,Oaklands Community Centre,Leisure / Community Centres,General,Indoor,Public,,"2827 BELMONT AVE #1, VICTORIA, BC",,0.0,0.0
713,Boys & Girls Club of Greater Victoria,Leisure / Community Centres,Youth,Indoor,Public,,"301- 1195 ESQUIMALT RD, VICTORIA, BC",ROOFTOP,48.429963,-123.412235
714,Wurtele Arena,Ice,Single surface,Indoor,Public,,"737 ADMIRALS RD, VICTORIA, BC",ROOFTOP,48.4354176,-123.4173586
715,McKinnon Pool,Aquatics,25m pool with or without other pools,Indoor,Public,,"3800 FINNERTY RD, VICTORIA, BC",ROOFTOP,48.4624484,-123.3073448
716,Victoria Athletic Club,Aquatics,25m pool with or without other pools,Indoor,Private,,"463 BELLEVILLE ST, VICTORIA, BC",ROOFTOP,48.4205585,-123.3726817
720,Vancouver Island YMCA/YWCA (Victoria Downtown),Aquatics,25m pool with or without other pools,Indoor,Public,1.0,"851 BROUGHTON ST, VICTORIA, BC",ROOFTOP,48.422801,-123.3608263
722,Community Living Victoria,Leisure / Community Centres,General,Indoor,Public,1.0,"3861 CEDAR HILL CROSS RD, VICTORIA, BC",ROOFTOP,48.4640456,-123.3411006
724,Four Corners Community Collective,Leisure / Community Centres,General,Indoor,Private,,"1508 HAULTAIN ST, VICTORIA, BC",ROOFTOP,48.436245,-123.3395101
725,Cool Aid/Downtown Community Centre,Leisure / Community Centres,General,Indoor,Public,,"755 PANDORA AVE, VICTORIA, BC",ROOFTOP,48.4277192,-123.3627315
727,Victoria Curling Club,Ice,Curling,Indoor,Public,1.0,"1952 QUADRA ST, VICTORIA, BC",ROOFTOP,48.43157430000001,-123.359188
728,Victoria Native Friendship Centre,Leisure / Community Centres,General,Indoor,Public,,"231 REGINA AVE, VICTORIA, BC",ROOFTOP,48.4554978,-123.3888503
729,Ian Stewart Complex,Ice,Single surface,Indoor,Public,,"3964 GORDON HEAD RD, VICTORIA, BC",ROOFTOP,48.4697947,-123.3190454
734,"Centre for Athletics, Recreation and Special Abilities",Physical Recreation & Sports,Gymnasiums ,Indoor,Public,,"MCKENZIE AVE & GABRIOLA ROAD, VICTORIA, BC",GEOMETRIC_CENTER,30.1637174,-85.6577598
738,Beacon Community Services,Leisure / Community Centres,General,Indoor,Public,,"2723 QUADRA STREET, VICTORIA, BC",ROOFTOP,48.440049,-123.359004
739,Philippine Bayanihan Community Centre,Leisure / Community Centres,General,Indoor,Public,,"1709 BLANSHARD ST, VICTORIA, BC",ROOFTOP,48.4296556,-123.361655
741,Victoria Silver Threads Centre,Physical Recreation & Sports,Gymnasiums ,Indoor,Public,,"2340 RICHMOND ROAD, VICTORIA, BC",ROOFTOP,48.4340871,-123.3294945
743,Inter-Cultural Association of Greater Victoria,Leisure / Community Centres,General,Indoor,Public,,"930 BALMORAL ROAD, VICTORIA BC",ROOFTOP,48.4290531,-123.3582381
744,Our Place Society,Leisure / Community Centres,General,Indoor,Public,1.0,"919 PANDORA AVENUE, VICTORIA, BC",ROOFTOP,48.4270076,-123.357608
745,Queer IslandZ Community Centre ,Leisure / Community Centres,General,Indoor,Public,1.0,"3 FAN TAN ALLEY, VICTORIA, BC",ROOFTOP,48.4290058,-123.3677832
746,Prospect Lake Community Hall,Leisure / Community Centres,General,Indoor,Public,,"5358 SPARTON RD, VICTORIA, BC",ROOFTOP,48.527044,-123.4312563
747,City Centre Park,Physical Recreation & Sports,Sport fields,Both,Public,,"1089 LANGFORD PKWY, VICTORIA, BC",ROOFTOP,48.4428244,-123.5208872
751,Vancouver Island YMCA/YWCA (Langford Westhills),Aquatics,25m pool with or without other pools,Indoor,Public,1.0,"1319 WESTHILLS DR, VICTORIA, BC",ROOFTOP,48.4463549,-123.5333384
754,North Langford Recreation Centre,Leisure / Community Centres,General,Indoor,Public,,"1997 COUNTRY CLUB WAY, VICTORIA, BC",ROOFTOP,48.4776556,-123.5317408
758,Centennial Centre,Leisure / Community Centres,General,Indoor,Public,,"2805 CARLOW RD, VICTORIA, BC",ROOFTOP,48.4495662,-123.5124224
760,Oak Bay Recreation Centre,Aquatics,25m pool with or without other pools,Indoor,Public,,"1975 BEE ST, VICTORIA, BC",ROOFTOP,48.4310038,-123.3205516
766,Henderson Recreation Centre,Physical Recreation & Sports,Fitness centres / areas ,Indoor,Public,,"2291 CEDAR HILL CROSS RD, VICTORIA, BC",ROOFTOP,48.4574009,-123.3111943
769,Monterey Recreation Centre,Physical Recreation & Sports,Fitness centres / areas ,Indoor,Public,,"1442 MONTEREY AVENUE, VICTORIA BC,",ROOFTOP,48.4255556,-123.3150784
771,Oak Bay Tennis Club,Physical Recreation & Sports,Tennis and/or pickleball courts ,Indoor,Private,,"2506 BOWKER AVE, VICTORIA, BC",ROOFTOP,48.4332983,-123.3103642
772,Windsor Pavilion,Leisure / Community Centres,General,Indoor,Public,,"2451 WINDSOR ROAD, VICTORIA, BC",ROOFTOP,48.4217313,-123.3078351
773,Neighbourhood Learning Centre,Leisure / Community Centres,General,Indoor,Public,,"2121 CADBORO BAY ROAD, VICTORIA, BC",ROOFTOP,48.43232889999999,-123.3178334
776,Esquimalt Recreation Centre,Leisure / Community Centres,General,Indoor,Public,,"527 FRASER ST, VICTORIA, BC",ROOFTOP,48.42863819999999,-123.4125076
781,Esquimalt Teen Centre,Leisure / Community Centres,Youth,Indoor,Public,,"528 FRASER STREET, ESQUIMALT, BC",RANGE_INTERPOLATED,48.4292109,-123.4133247
782,Archie Browning Sports Centre,Ice,Single surface,Indoor,Public,,"1151 ESQUIMALT RD, VICTORIA, BC",ROOFTOP,48.4291649,-123.4093502
786,Silver Bow Studio,Physical Recreation & Sports,Fitness centres / areas ,Indoor,Private,,"15-1182 COLVILLE RD, VICTORIA, BC",ROOFTOP,48.43846490000001,-123.4104563
787,Naden Athletic Centre,Aquatics,25m pool with or without other pools,Indoor,Public,,"1200 WOODWAY RD, VICTORIA, BC",ROOFTOP,48.4332454,-123.4168074
793,Esquimalt Neighbourhood House Society,Leisure / Community Centres,General,Indoor,Public,,"511 CONSTANCE AVE, VICTORIA, BC",ROOFTOP,48.42875950000001,-123.4179353
794,Esquimalt Military Family Resource Centre,Leisure / Community Centres,General,Indoor,Public,1.0,"2610 ROSEBANK RD, VICTORIA, BC",ROOFTOP,48.4411717,-123.462021
795,Westshore 55+ Recreation Centre,Leisure / Community Centres,Seniors,Indoor,Public,1.0,"1767 ISLAND HWY, BUILDING 3, VICTORIA, BC",ROOFTOP,48.4469287,-123.4648533
796,Juan de Fuca Recreation Centre,Aquatics,25m pool with or without other pools,Indoor,Public,,"1767 ISLAND HWY, VICTORIA, BC",ROOFTOP,48.4469287,-123.4648533
802,Colwood Community Hall,Leisure / Community Centres,General,Indoor,Public,,"2219 SOOKE RD, COLWOOD, BC",ROOFTOP,48.43510209999999,-123.4898065
803,Colwood Pacific Activity Centre (CPAC),Leisure / Community Centres,General,Indoor,Public,1.0,"2610 ROSEBANK RD, VICTORIA, BC",ROOFTOP,48.4411717,-123.462021
804,Central Saanich Cultural Centre,Leisure / Community Centres,Seniors,Indoor,Public,,"1209 CLARKE RD, BRENTWOOD BAY, BC",ROOFTOP,48.575792,-123.448599
805,Brentwood Bay Community Hall,Physical Recreation & Sports,Gymnasiums ,Indoor,Public,1.0,"7082 WALLACE DR, BRENTWOOD BAY, BC",ROOFTOP,48.5747805,-123.4476529
808,Beacon Community Services Early Years Centre,Leisure / Community Centres,Youth,Indoor,Public,,"1649 MT NEWTON CROSS RD, SAANICHTON, BC",ROOFTOP,48.5974243,-123.4313545
809,Central Saanich Senior Citizens Association,Leisure / Community Centres,Seniors,Indoor,Public,,"1229 CLARKE RD, BRENTWOOD BAY, BC",ROOFTOP,48.5755708,-123.4484017
810,Seaparc Leisure Complex,Aquatics,25m pool with or without other pools,Indoor,Public,,"2168 PHILLIPS RD, SOOKE, BC",ROOFTOP,48.3860249,-123.7081646
815,Royal Roads University Recreation Centre,Physical Recreation & Sports,Fitness centres / areas ,Indoor,Public,,"2005 SOOKE RD, VICTORIA, BC",ROOFTOP,48.4322167,-123.4782149
816,Sooke Community Hall,Leisure / Community Centres,General,Indoor,Public,,"2037 SHEILDS RD, SOOKE, BC",ROOFTOP,48.37734349999999,-123.7251761
817,Shirley Community Hall,Leisure / Community Centres,General,Indoor,Public,,"2795 SHERINGHAM POINT RD, SHIRLEY, BC",ROOFTOP,48.3889618,-123.9036547
818,Greenglade Community Centre,Leisure / Community Centres,General,Indoor,Public,,"2151 LANNON WAY, SIDNEY, BC",ROOFTOP,48.6393739,-123.410198
821,SHOAL Community Centre,Leisure / Community Centres,Seniors,Indoor,Public,,"10030 RESTHAVEN DR, SIDNEY, BC",ROOFTOP,48.65404669999999,-123.4028921
823,Summergate Recreation Centre,Physical Recreation & Sports,Fitness centres / areas ,Indoor,Public,,"2045 SUMMERGATE BLVD, SIDNEY, BC",ROOFTOP,48.636266,-123.4145269
824,McTavish Academy of Art,Leisure / Community Centres,General,Indoor,Public,,,,,
826,Panorama Recreation,Ice,2+ surfaces,Indoor,Public,,"1885 FOREST PARK DR, NORTH SAANICH, BC",ROOFTOP,48.6252963,-123.4228548
833,Pauquachin Community Hall,Leisure / Community Centres,General,Indoor,Public,1.0,"9010 W SAANICH RD, NORTH SAANICH, BC",ROOFTOP,48.6271248,-123.4584786
834,Strawberry Vale Community Club,Leisure / Community Centres,General,Indoor,Public,1.0,"11 HIGH ST, VICTORIA, BC",ROOFTOP,48.4669243,-123.4215422
837,Vancouver Island YMCA-YWCA (Eagle Creek) ,Physical Recreation & Sports,Fitness centres / areas ,Indoor,Public,1.0,"25 HELMCKEN RD #110, VICTORIA, BC",,0.0,0.0
838,Songhees Wellness Centre,Leisure / Community Centres,General,Indoor,Public,,"1500 ADMIRALS RD, VICTORIA, BC",ROOFTOP,48.449453,-123.4256369
841,View Royal Community Hall,Leisure / Community Centres,General,Indoor,Public,1.0,"279 ISLAND HWY, VICTORIA, BC",ROOFTOP,48.4539666,-123.4386288
842,Metchosin Community Hall,Leisure / Community Centres,General,Indoor,Public,1.0,"450 CREED RD, VICTORIA, BC",GEOMETRIC_CENTER,48.4658928,-123.4524687
843,Seniors' Resource Centre,Leisure / Community Centres,Seniors,Indoor,Public,,"4495 HAPPY VALLEY RD, VICTORIA, BC",ROOFTOP,48.380443,-123.5322478
844,Highlands Community Hall,Leisure / Community Centres,General,Indoor,Public,,"729 FINLAYSON ARM RD, VICTORIA, BC",ROOFTOP,48.4948592,-123.5136138
845,West Hillhurst CA,Physical Recreation & Sports,Gymnasiums ,Indoor,Public,1.0,"1940 6 AV NW, CALGARY, AB",ROOFTOP,51.0580467,-114.1046877
849,Triwood CA,Ice,Single surface,Indoor,Public,1.0,"2244 CHICOUTIMI DR NW, CALGARY, AB",GEOMETRIC_CENTER,51.08627,-114.1110098
851,Huntington Hills CA,Physical Recreation & Sports,Sport fields,Both,Public,,"520 78 AV NW, CALGARY, AB",ROOFTOP,51.1236818,-114.072314
855,Lake Bonavista Recreation Centre,Ice,2+ surfaces,Indoor,Public,1.0,"1401 ACADIA DR SE, CALGARY, AB",ROOFTOP,50.9368956,-114.0490608
859,Thorncliffe / Greenview CA,Ice,Single surface,Indoor,Public,1.0,"5600 CENTRE ST NE, CALGARY, AB",ROOFTOP,51.1012091,-114.0616559
861,Acadia Recreation Complex,Ice,Curling,Indoor,Public,1.0,"240 90 AV SE , CALGARY, AB",ROOFTOP,50.9731134,-114.0651716
864,Brentwood Sportsplex,Ice,Single surface,Indoor,Public,1.0,"1520B NORTHMOUNT DR NW, CALGARY, AB",ROOFTOP,51.0973397,-114.1378629
865,Bowness Community Centre and Arena,Ice,Single surface,Indoor,Public,1.0,"7904 43 AV NW, CALGARY, AB",ROOFTOP,51.0916018,-114.2004839
866,Oakridge CA,Ice,2+ surfaces,Both,Public,,"9504 OAKFIELD DR SW, CALGARY, AB",ROOFTOP,50.9684496,-114.1315152
868,Repsol Sport Centre,Aquatics,25m pool with or without other pools,Indoor,Public,1.0,"2225 MACLEOD TR SE, CALGARY, AB",ROOFTOP,51.0344667,-114.0636218
871,Max Bell #2,Ice,2+ surfaces,Indoor,Public,,"1001 BARLOW TR SE, CALGARY, AB",ROOFTOP,51.04207770000001,-114.0042273
872,Stew Hendry Arena,Ice,Single surface,Indoor,Public,,"814 13 AV NE, CALGARY, AB",ROOFTOP,51.0650445,-114.0446877
873,WinSport,Ice,Single surface,Indoor,Public,,"88 CANADA OLYMPIC RD SW, CALGARY, AB",ROOFTOP,51.0824137,-114.2152912
875,Brookfield Residential YMCA at Seton,Physical Recreation & Sports,Fitness centres / areas ,Indoor,Public,,"4995 MARKET ST SE, CALGARY, AB",ROOFTOP,50.8812366,-113.9443522
879,Jack Setters Arena,Ice,Single surface,Indoor,Public,1.0,"2086 69 AVE SE, CALGARY, AB",ROOFTOP,50.9909931,-114.011444
880,Southland Leisure Centre,Leisure / Community Centres,General,Indoor,Public,,"2000 SOUTHLAND DR SW, CALGARY, AB",ROOFTOP,50.9625279,-114.1084391
883,South Health Campus YMCA,Physical Recreation & Sports,Fitness centres / areas ,Indoor,Public,,"4448 FRONT ST SE, CALGARY, AB",GEOMETRIC_CENTER,50.8829211,-113.9502279
884,Saddletowne YMCA,Physical Recreation & Sports,Fitness centres / areas ,Indoor,Public,,"7556 FALCONRIDGE BV NE, CALGARY, AB",ROOFTOP,51.1201403,-113.9481433
888,Westside Recreation Centre,Aquatics,25m pool with or without other pools,Indoor,Public,1.0,"2000 69 ST SW, CALGARY, AB",ROOFTOP,51.0355924,-114.1858486
892,Gray Family Eau Claire YMCA,Physical Recreation & Sports,Fitness centres / areas ,Indoor,Public,,"101 3 ST SW, CALGARY, AB",ROOFTOP,51.0526497,-114.0707818
894,Killarney Aquatic & Recreation Centre,Aquatics,25m pool with or without other pools,Indoor,Public,,"1919 29 ST SW, CALGARY, AB",ROOFTOP,51.0373538,-114.1302931
896,Murray Copot Arena,Ice,Single surface,Indoor,Public,,"6727 CENTRE STREET NW, CALGARY, AB",ROOFTOP,51.1129354,-114.0654022
897,Crowchild Twin Arenas,Ice,Single surface,Indoor,Public,,"185 SCENIC ACRES DR NW, CALGARY, AB",ROOFTOP,51.1122531,-114.2117947
898,Jimmy Condon Arena,Ice,2+ surfaces,Indoor,Public,,"502 HERITAGE DR SW, CALGARY, AB",ROOFTOP,50.9800941,-114.074274
899,Vivo for Healthier Generations,Leisure / Community Centres,Youth,Indoor,Public,,"11950 COUNTRY VILLAGE LI NE, CALGARY, AB",ROOFTOP,51.1595548,-114.0655929
904,Crowfoot Arena,Ice,Single surface,Indoor,Public,1.0,"8080 JOHN LAURIE BV NW, CALGARY, AB",ROOFTOP,51.128165,-114.195049
905,Remington YMCA in Quarry Park,Physical Recreation & Sports,Fitness centres / areas ,Indoor,Public,,"108 QUARRY PARK RD SE, CALGARY, AB",ROOFTOP,50.961732,-114.0060674
909,Mount Pleasant Sportsplex,Leisure / Community Centres,General,Indoor,Public,,"610 23 AVE NW, CALGARY, AB",ROOFTOP,51.0732765,-114.0738282
911,Stu Peppard Arena,Ice,Single surface,Indoor,Public,,"5320 19 ST SW, CALGARY, AB",RANGE_INTERPOLATED,51.00681170000001,-114.106462
912,Trico Centre for Family Wellness,Leisure / Community Centres,General,Indoor,Public,,"11150 BONAVENTURE DR SE, CALGARY, AB",ROOFTOP,50.9522484,-114.0590421
918,Rose Kohn Arena,Ice,2+ surfaces,Indoor,Public,,"502 HERITAGE DR SW, CALGARY, AB",ROOFTOP,50.9800941,-114.074274
919,Father David Bauer Arena,Ice,2+ surfaces,Indoor,Public,,"2424 UNIVERSITY DR NW, CALGARY, AB",ROOFTOP,51.0737439,-114.1263105
920,Shane Homes YMCA at Rocky Ridge,Physical Recreation & Sports,Gymnasiums ,Indoor,Public,,"11300 ROCKY RIDGE RD NW, CALGARY, AB",ROOFTOP,51.15695969999999,-114.2312738
926,Shouldice Arena,Ice,Single surface,Indoor,Public,,"1515 HOME RD NW, CALGARY, AB",GEOMETRIC_CENTER,51.0731183,-114.1682827
927,Frank McCool Arena,Ice,Single surface,Indoor,Public,,"1900 LAKE BONAVISTA DR SE, CALGARY, AB",ROOFTOP,50.937258,-114.049842
928,Foothills Aquatic Centre,Aquatics,25m pool with or without other pools,Indoor,Public,,"2915 24 AVE. N.W, CALGARY, AB",ROOFTOP,51.0740977,-114.1254346
930,Sir Winston Churchill Aquatic & Rec Ctr,Physical Recreation & Sports,Fitness centres / areas ,Indoor,Public,,"1520 NORTHMOUNT DR NW, CALGARY, AB",ROOFTOP,51.0973397,-114.1378629
933,Inglewood Aquatic Centre,Aquatics,25m pool with or without other pools,Indoor,Public,,"1525 17 AV SE, CALGARY, AB",ROOFTOP,51.037627,-114.0288939
934,Renfrew Aquatic & Recreation Centre,Aquatics,25m pool with or without other pools,Indoor,Public,,"810 13 AV NE, CALGARY, AB",ROOFTOP,51.0645028,-114.0454781
937,Southland (Joseph Kryczka Arena),Ice,2+ surfaces,Indoor,Public,,"2000 SOUTHLAND DR SW, CALGARY, AB",ROOFTOP,50.9625279,-114.1084391
938,Vecova Centre for Disability Services and Research,Aquatics,25m pool with or without other pools,Indoor,Public,,"3304 33 ST NW, CALGARY, AB",ROOFTOP,51.0822236,-114.1322684
939,Beltline Aquatic & Fitness Centre,Aquatics,25m pool with or without other pools,Indoor,Public,,"221 12 AV SW, CALGARY, AB",ROOFTOP,51.0413216,-114.0669381
942,Glenmore Aquatic Centre,Aquatics,25m pool with or without other pools,Indoor,Public,,"5330 19 ST SW, CALGARY, AB",ROOFTOP,51.0062373,-114.1054708
944,Great Plains Recreation Facility,Ice,2+ surfaces,Indoor,Public,1.0,"5749 76 AV SE, CALGARY, AB",ROOFTOP,50.98445350000001,-113.9480795
945,Ernie Starr Arena,Ice,Single surface,Indoor,Public,,"4808 14 AV SE, CALGARY, AB",ROOFTOP,51.0414147,-113.9651325
946,Shawnessy YMCA,Physical Recreation & Sports,Fitness centres / areas ,Indoor,Public,,"333 SHAWVILLE BV SE, CALGARY, AB",ROOFTOP,50.8973158,-114.0638592
951,Don Hartman North East Sportsplex,Ice,2+ surfaces,Indoor,Public,1.0,"5200 68 ST NE, CALGARY, AB",ROOFTOP,51.102093,-113.9347001
954,Calgary Soccer Centre,Physical Recreation & Sports,Sport fields,Indoor,Public,,"7000 48 ST SE, CALGARY, AB",ROOFTOP,50.9923711,-113.9606836
955,Village Square Arena #2,Ice,2+ surfaces,Indoor,Public,,"2623 56 ST NE, CALGARY, AB",ROOFTOP,51.0759932,-113.9544536
958,Southland (Ed Whalen Arena),Ice,2+ surfaces,Indoor,Public,,"2000 SOUTHLAND DR SW, CALGARY, AB",ROOFTOP,50.9625279,-114.1084391
959,Canyon Meadows Aquatic & Fitness Centre,Aquatics,25m pool with or without other pools,Indoor,Public,,"89 CANOVA RD SW, CALGARY, AB",ROOFTOP,50.9483676,-114.0898111
962,Cardel Rec South,Ice,2+ surfaces,Indoor,Public,1.0,"333 SHAWVILLE BV SE, CALGARY, AB",ROOFTOP,50.8973158,-114.0638592
965,Henry Viney Arena,Ice,Single surface,Indoor,Public,,"814 13 AV NE, CALGARY, AB",ROOFTOP,51.0650445,-114.0446877
966,Wildflower Arts Centre,Physical Recreation & Sports,Gymnasiums ,Indoor,Public,,"3363 SPRUCE DR SW, CALGARY, AB",ROOFTOP,51.0463168,-114.1355405
967,Genesis Centre of Community Wellness,Physical Recreation & Sports,Sport fields,Indoor,Public,,"7555 FALCONRIDGE BV NE, CALGARY, AB",ROOFTOP,51.12040289999999,-113.9491919
971,Shouldice Aquatic Centre,Aquatics,25m pool with or without other pools,Indoor,Public,,"5303 BOWNESS RD NW, CALGARY, AB",ROOFTOP,51.07696869999999,-114.1717678
972,Flames Community Arenas,Ice,2+ surfaces,Indoor,Public,1.0,"2390 47 AV SW, CALGARY, AB",ROOFTOP,51.0119238,-114.1165201
973,Thornhill Aquatic & Recreation Centre,Aquatics,25m pool with or without other pools,Indoor,Public,,"6715 CENTRE ST NW, CALGARY, AB",ROOFTOP,51.1126972,-114.0654872
976,Optimist Arena,Ice,2+ surfaces,Indoor,Public,,"5020 26 AV SW, CALGARY, AB",ROOFTOP,51.0319613,-114.1598286
981,Village Square Leisure Centre,Leisure / Community Centres,General,Indoor,Public,,"2623 56 ST NE, CALGARY, AB",ROOFTOP,51.0759932,-113.9544536
989,Village Square Arena #1,Ice,2+ surfaces,Indoor,Public,,"2623 56 ST NE, CALGARY, AB",ROOFTOP,51.0759932,-113.9544536
990,Acadia Aquatic & Fitness Centre,Aquatics,25m pool with or without other pools,Indoor,Public,,"9009 FAIRMOUNT DR SE, CALGARY, AB",ROOFTOP,50.9730712,-114.059342
992,Bob Bahan Aquatic & Fitness Centre,Aquatics,25m pool with or without other pools,Indoor,Public,,"4812 14 AV SE, CALGARY, AB",ROOFTOP,51.0413276,-113.9639418
995,Melcor YMCA at Crowfoot,Aquatics,25m pool with or without other pools,Indoor,Public,,"8100 JOHN LAURIE BV NW, CALGARY, AB",ROOFTOP,51.1286008,-114.195376
999,George Blundun Arena,Ice,2+ surfaces,Indoor,Public,,"5020 26 AV SW, CALGARY, AB",ROOFTOP,51.0319613,-114.1598286
1000,East Calgary Twin Arenas,Ice,2+ surfaces,Indoor,Public,,"299 ERIN WOODS DR SE, CALGARY, AB",ROOFTOP,51.02602700000001,-113.964303
1001,Citadel Community Centre,Leisure / Community Centres,General,Both,Public,,"860 CITADEL DR NW, CALGARY, AB",ROOFTOP,51.144718,-114.173803
1002,Albert Park / Radisson Heights Community Centre,Ice,2+ surfaces,Both,Public,1.0,"2636 12 AV SE, CALGARY, AB",ROOFTOP,51.0420319,-113.9992581
1003,Copperfield & Mahogany Community Center,Leisure / Community Centres,General,Both,Public,,"6 COPPERSTONE WAY SE, CALGARY, AB",ROOFTOP,50.9148377,-113.9324561
1004,Tuscany Community Centre,Leisure / Community Centres,General,Indoor,Public,1.0,"212 TUSCANY WAY NW, CALGARY, AB",ROOFTOP,51.12467700000001,-114.2455253
1006,Glamorgan Community Centre,Leisure / Community Centres,General,Both,Public,,"4207 41 AV SW, CALGARY, AB",ROOFTOP,51.0173697,-114.1452322
1007,Whitehorn Community Centre,Leisure / Community Centres,General,Both,Public,1.0,"228 WHITEHORN RD NE, CALGARY, AB",ROOFTOP,51.088786,-113.9669543
1010,Pineridge Community Centre,Leisure / Community Centres,General,Both,Public,1.0,"6024 RUNDLEHORN DR NE, CALGARY, AB",ROOFTOP,51.0715309,-113.9453247
1011,Kingsland Community Centre,Leisure / Community Centres,General,Both,Public,,"505 78 AV SW, CALGARY, AB",ROOFTOP,50.98294869999999,-114.0740488
1013,Woodcreek Community Centre,Leisure / Community Centres,General,Both,Public,,"1991 WOODVIEW DR SW, CALGARY, AB",ROOFTOP,50.9410421,-114.1048837
1014,McKenzie Lake Community Centre,Leisure / Community Centres,General,Both,Public,1.0,"16198 MCKENZIE LAKE WY SE, CALGARY, AB",ROOFTOP,50.9062864,-113.9835459
1017,Lake Bonavista Downs Community Centre,Leisure / Community Centres,General,Both,Public,1.0,"1418 LAKE ONTARIO RD SE, CALGARY, AB",ROOFTOP,50.9418056,-114.0320139
1018,Highland Park Community Centre,Leisure / Community Centres,General,Indoor,Public,1.0,"3716 2 ST NW, CALGARY, AB",ROOFTOP,51.0853682,-114.066205
1020,"Palliser, Bayview, Pumphill Community Centre",Leisure / Community Centres,General,Both,Public,1.0,"2323 PALLISER DR SW, CALGARY, AB",ROOFTOP,50.9687756,-114.1140796
1021,Beltline Victoria and Connaught Community Centre,Leisure / Community Centres,General,Indoor,Public,,"1302 6 ST SE, CALGARY, AB",ROOFTOP,51.039958,-114.0481499
1022,Brentwood Community Centre,Leisure / Community Centres,General,Both,Public,1.0,"5107 33 ST NW, CALGARY, AB",ROOFTOP,51.0987088,-114.1361838
1023,Scarboro Community Centre,Leisure / Community Centres,General,Both,Public,1.0,"1727 14 AV SW, CALGARY, AB",ROOFTOP,51.0404391,-114.1012162
1024,Strathcona/Christie Park Community Centre,Leisure / Community Centres,General,Both,Public,1.0,"277 STRATHCONA DR SW, CALGARY, AB",ROOFTOP,51.0473108,-114.1799516
1025,Penbrooke Meadows Community Centre,Leisure / Community Centres,General,Indoor,Public,1.0,"6100 8 AV SE, CALGARY, AB",ROOFTOP,51.04588889999999,-113.946345
1027,Hounsfield Heights/Briar Hill Community Centre,Leisure / Community Centres,General,Both,Public,1.0,"1922 14 AV NW, CALGARY, AB",ROOFTOP,51.0662794,-114.1041327
1029,Haysboro Community Centre,Leisure / Community Centres,General,Both,Public,,"1204 89 AV SW, CALGARY, AB",ROOFTOP,50.9747634,-114.0878688
1030,Rosemont Community Centre,Leisure / Community Centres,General,Indoor,Public,1.0,"2807 10 ST NW, CALGARY, AB",GEOMETRIC_CENTER,51.0762929,-114.0841759
1031,West Hillhurst Community Centre,Leisure / Community Centres,General,Indoor,Public,1.0,"1940 6 AV NW, CALGARY, AB",ROOFTOP,51.0580467,-114.1046877
1035,Parkhill/Stanley Park Community Centre,Leisure / Community Centres,General,Both,Public,1.0,"4013 STANLEY RD SW, CALGARY, AB",ROOFTOP,51.0184369,-114.0647512
1037,Killarney/Glengarry Community Centre,Leisure / Community Centres,General,Both,Public,1.0,"2828 28 ST SW, CALGARY, AB",ROOFTOP,51.0287462,-114.1276616
1038,Hillhurst/Sunnyside Community Centre,Leisure / Community Centres,General,Both,Public,1.0,"1320 5 AV NW, CALGARY, AB",ROOFTOP,51.0575828,-114.0925606
1039,Rosedale Community Centre,Leisure / Community Centres,General,Indoor,Public,1.0,"901 11 AV NW, CALGARY, AB",ROOFTOP,51.0621398,-114.0815098
1041,Montgomery Community Centre,Leisure / Community Centres,General,Indoor,Public,1.0,"5003 - 16 AV NW, CALGARY, AB",ROOFTOP,51.0724469,-114.1652245
1044,Chaparral Residents Association,Leisure / Community Centres,General,Indoor,Public,,"225 CHAPARRAL DR SE, CALGARY, AB",ROOFTOP,50.886367,-114.0364283
1045,Elbow Park Community Centre,Leisure / Community Centres,General,Both,Public,1.0,"800 34 AV SW, CALGARY, AB",ROOFTOP,51.0234189,-114.082077
1046,Falconridge/Castleridge Community Centre,Leisure / Community Centres,General,Both,Public,1.0,"95 FALSHIRE DR NE, CALGARY, AB",ROOFTOP,51.1045518,-113.9460568
1047,Inglewood Community Centre,Leisure / Community Centres,General,Indoor,Public,1.0,"1740 24 AV SE, CALGARY, AB",ROOFTOP,51.0322999,-114.0196156
1048,Richmond/Knob Hill Community Centre,Leisure / Community Centres,General,Both,Public,1.0,"2433 26 AV SW, CALGARY, AB",ROOFTOP,51.0299014,-114.1170163
1049,Highwood Community Centre,Leisure / Community Centres,General,Both,Public,1.0,"16 HARLOW AV NW, CALGARY, AB",ROOFTOP,51.090799,-114.0773618
1050,Windsor Park Community Centre,Leisure / Community Centres,General,Indoor,Public,1.0,"5304 6 ST SW, CALGARY, AB",ROOFTOP,51.00641890000001,-114.078599
1051,Rosscarrock Community Centre,Leisure / Community Centres,General,Both,Public,1.0,"4411 10 AV SW, CALGARY, AB",RANGE_INTERPOLATED,51.0429686,-114.1507263
1053,Elboya Heights Community Centre,Leisure / Community Centres,General,Indoor,Public,1.0,"416 PARK AV SW, CALGARY, AB",ROOFTOP,51.015275,-114.0735071
1054,Shaganappi Community Centre,Leisure / Community Centres,General,Both,Public,1.0,"2608 14 AV SW, CALGARY, AB",ROOFTOP,51.03971139999999,-114.1213725
1056,Renfrew Community Association,Leisure / Community Centres,General,Both,Public,1.0,"811 RADFORD RD NE, CALGARY, AB",ROOFTOP,51.06020609999999,-114.0447332
1057,Mid-Sun Community Centre,Physical Recreation & Sports,Gymnasiums ,Indoor,Public,1.0,"50 MIDPARK RI SE, CALGARY, AB",ROOFTOP,50.9154898,-114.05653
1060,Meadowlark Park Community Centre,Leisure / Community Centres,General,Indoor,Public,1.0,"623 58 AV SW, CALGARY, AB",ROOFTOP,51.00104650000001,-114.0778619
1061,Huntington Hills Community Centre,Leisure / Community Centres,General,Indoor,Public,1.0,"520 78 AV NW, CALGARY, AB",ROOFTOP,51.1236818,-114.072314
1062,Winston Heights/Mountview Community Centre,Leisure / Community Centres,General,Both,Public,1.0,"520 27 AV NE, CALGARY, AB",ROOFTOP,51.0773721,-114.052075
1064,Westgate Community Centre,Leisure / Community Centres,General,Both,Public,,"4943 8 AV SW, CALGARY, AB",ROOFTOP,51.0446095,-114.1579594
1067,Rutland Park Community Centre,Leisure / Community Centres,General,Both,Public,1.0,"3130 , CALGARY, AB",GEOMETRIC_CENTER,51.0183747,-114.1353807
1068,Glenbrook Community Centre,Leisure / Community Centres,General,Both,Public,1.0,"3524 45 ST SW, CALGARY, AB",ROOFTOP,51.023509,-114.152105
1069,Bankview Community Centre,Leisure / Community Centres,General,Both,Public,1.0,"2418 17 ST SW, CALGARY, AB",ROOFTOP,51.0325128,-114.1014882
1070,Ranchlands Community Centre,Leisure / Community Centres,General,Both,Public,1.0,"7713 RANCHVIEW DR NW, CALGARY, AB",ROOFTOP,51.11964219999999,-114.1795228
1071,Dalhousie Community Centre,Leisure / Community Centres,General,Both,Public,1.0,"5432 DALHART RD NW, CALGARY, AB",ROOFTOP,51.11286,-114.1596723
1072,Crossroads Community Centre,Leisure / Community Centres,General,Indoor,Public,1.0,"1803 14 AV NE, CALGARY, AB",ROOFTOP,51.0651406,-114.0191715
1073,Braeside Community Centre,Leisure / Community Centres,General,Both,Public,1.0,"11024 BRAESIDE DR SW, CALGARY, AB",ROOFTOP,50.9543822,-114.1020315
1075,Capitol Hill Community Centre,Leisure / Community Centres,General,Both,Public,1.0,"1531 21 AV NW, CALGARY, AB",ROOFTOP,51.0712612,-114.0964874
1076,Lakeview Community Centre,Leisure / Community Centres,General,Both,Public,1.0,"6110 34 ST SW, CALGARY, AB",ROOFTOP,50.99854,-114.136876
1077,Chinook Park/Kelvin Grove/Eagle Ridge Community Centre,Leisure / Community Centres,General,Both,Public,1.0,"1015 73 AV SW, CALGARY, AB",ROOFTOP,50.9876049,-114.0849749
1080,Southview Community Centre,Leisure / Community Centres,General,Both,Public,1.0,"2020 33 ST SE, CALGARY, AB",ROOFTOP,51.033177,-113.9883589
1081,St. Andrews Heights Community Centre,Leisure / Community Centres,General,Both,Public,1.0,"2504 13 AV NW, CALGARY, AB",ROOFTOP,51.0640417,-114.1213957
1082,Wildwood Community Centre,Leisure / Community Centres,General,Both,Public,1.0,"4411 SPRUCE DR SW, CALGARY, AB",ROOFTOP,51.0519207,-114.1508472
1083,Arbour Lake Community Centre,Leisure / Community Centres,General,Both,Public,1.0,"12 ARBOUR LAKE DR NW, CALGARY, AB",ROOFTOP,51.1333,-114.2037652
1084,Glendale/Glendale Meadows Community Centre,Leisure / Community Centres,General,Both,Public,1.0,"2405 GLENMOUNT DR SW, CALGARY, AB",ROOFTOP,51.032532,-114.148343
1085,Silver Springs Community Centre,Leisure / Community Centres,General,Both,Public,1.0,"5720 SILVER RIDGE DR NW, CALGARY, AB",GEOMETRIC_CENTER,51.1043139,-114.1919145
1086,Fairview Community Centre,Leisure / Community Centres,General,Both,Public,1.0,"8038 FAIRMOUNT DR SE, CALGARY, AB",ROOFTOP,50.9824163,-114.0593341
1087,Oakridge Community Centre,Leisure / Community Centres,General,Both,Public,1.0,"9504 OAKFIELD DR SW, CALGARY, AB",ROOFTOP,50.9684496,-114.1315152
1088,Parkland Community Centre,Leisure / Community Centres,General,Both,Public,1.0,"505 PARKVALLEY RD SE, CALGARY, AB",ROOFTOP,50.918067,-114.0262478
1090,Dover Community Centre,Leisure / Community Centres,General,Both,Public,1.0,"3033 30 AV S, CALGARY, AB",RANGE_INTERPOLATED,51.0268211,-113.9932377
1092,Monterey Park Community Centre,Leisure / Community Centres,General,Both,Public,1.0,"2707 CATALINA BV NE, CALGARY, AB",ROOFTOP,51.07631,-113.931064
1094,Saddle Ridge Community Centre,Leisure / Community Centres,General,Indoor,Public,1.0,"7614 42 ST NE, CALGARY, AB",RANGE_INTERPOLATED,51.0559795,-113.9705664
1095,Canyon Meadows Community Centre,Leisure / Community Centres,General,Both,Public,1.0,"848 CANTABRIAN DR SW, CALGARY, AB",ROOFTOP,50.94641319999999,-114.077777
1096,Riverbend Community Centre,Leisure / Community Centres,General,Both,Public,1.0,"19 RIVERVALLEY DR SE, CALGARY, AB",ROOFTOP,50.9724661,-114.0164665
1097,Calgary Marlborough Community Centre,Leisure / Community Centres,General,Both,Public,1.0,"636 MARLBOROUGH WY NE, CALGARY, AB",ROOFTOP,51.0582601,-113.9742291
1099,Shawnessy Community Centre,Leisure / Community Centres,General,Both,Public,1.0,"224 SHAWMEADOWS RD SW, CALGARY, AB",ROOFTOP,50.907097,-114.075066
1101,Cedarbrae Community Centre,Leisure / Community Centres,General,Both,Public,1.0,"11024 OAKFIELD DR SW, CALGARY, AB",ROOFTOP,50.9545912,-114.1298788
1103,Marlborough Park Community Centre,Leisure / Community Centres,General,Both,Public,1.0,"6021 MADIGAN DR NE, CALGARY, AB",ROOFTOP,51.0600522,-113.9425556
1105,Erin Woods Community Centre,Leisure / Community Centres,General,Both,Public,1.0,"83 ERIN PARK DR SE, CALGARY, AB",ROOFTOP,51.0229033,-113.9637915
1106,Deer Run Community Centre,Leisure / Community Centres,General,Both,Public,1.0,"2223 146 AV SE, CALGARY, AB",ROOFTOP,50.9213514,-114.0076231
1108,Bridgeland / Riverside Community Centre,Leisure / Community Centres,General,Indoor,Public,,"917 CENTRE AV NE, CALGARY, AB",ROOFTOP,51.0520922,-114.0407289
1109,Willow Park / Mapleridge Community Centre,Leisure / Community Centres,General,Both,Public,1.0,"680 ACADIA DR SE, CALGARY, AB",ROOFTOP,50.9599468,-114.0433676
1112,Southwood Community Centre,Leisure / Community Centres,General,Both,Public,1.0,"11 SACKVILLE DR SW, CALGARY, AB",ROOFTOP,50.95679440000001,-114.0863818
1114,Sunalta Community Centre,Leisure / Community Centres,General,Both,Public,1.0,"1627 10 AV SW, CALGARY, AB",ROOFTOP,51.0442084,-114.098346
1115,Queensland / Diamond Cove Community Centre,Leisure / Community Centres,General,Both,Public,1.0,"649 QUEENSLAND DR SE, CALGARY, AB",ROOFTOP,50.9396194,-114.0216796
1118,Calgary Stampede Park,Ice,Single surface,Indoor,Public,1.0,"1410 OLYMPIC WY SE, CALGARY, AB",ROOFTOP,51.0379357,-114.0533282
1119,Abbeydale Community Centre,Leisure / Community Centres,General,Both,Public,1.0,"821 ABBEYDALE DR NE, CALGARY, AB",ROOFTOP,51.0596791,-113.9319906
1122,Banff Trail Community Centre,Leisure / Community Centres,General,Both,Public,1.0,"2115 20 AV NW, CALGARY, AB",ROOFTOP,51.07030169999999,-114.109007
1123,Crescent Heights Community Centre,Leisure / Community Centres,General,Both,Public,1.0,"1101 2 ST NW, CALGARY, AB",GEOMETRIC_CENTER,51.0613025,-114.0688017
1125,WinSport's Canada Olympic Park,Leisure / Community Centres,General,Indoor,Public,,"88 CANADA OLYMPIC RD SW, CALGARY, AB",ROOFTOP,51.0824137,-114.2152912
1126,Ramsay Community Centre,Leisure / Community Centres,General,Both,Public,1.0,"1136 8 ST SE, CALGARY, AB",ROOFTOP,51.0383979,-114.041144
1127,Lake Bonavista Community Centre,Leisure / Community Centres,General,Both,Public,1.0,"1401 ACADIA DR SW, CALGARY, AB",ROOFTOP,50.9368956,-114.0490608
1131,Spruce Cliff Community Centre,Leisure / Community Centres,General,Both,Public,1.0,"3375 SPRUCE DR SW, CALGARY, AB",ROOFTOP,51.0473647,-114.1358178
1132,Acadia Community Centre,Leisure / Community Centres,General,Both,Public,1.0,"240 90 AV SE, CALGARY, AB",ROOFTOP,50.9731134,-114.0651716
1136,Scenic Acres Community Centre,Leisure / Community Centres,General,Both,Public,1.0,"8825 SCURFIELD DR NW, CALGARY, AB",ROOFTOP,51.122084,-114.2143171
1139,Tuxedo Park Community Centre,Leisure / Community Centres,General,Both,Public,1.0,"202 29 AV NE, CALGARY, AB",ROOFTOP,51.078903,-114.0596367
1140,Beddington Heights Community Centre,Leisure / Community Centres,General,Both,Public,1.0,"375 BERMUDA DR NW, CALGARY, AB",ROOFTOP,51.1316222,-114.0852083
1143,Cambrian Heights Community Centre,Leisure / Community Centres,,Both,Public,1.0,"600 NORTHMOUNT DR NW, CALGARY, AB",ROOFTOP,51.0867915,-114.0874362
1145,Mount Royal Community Centre,Leisure / Community Centres,General,Indoor,Public,,"2317 10 ST SW, CALGARY, AB",ROOFTOP,51.03172439999999,-114.0860757
1146,North Glenmore Park Community Centre,Leisure / Community Centres,General,Both,Public,1.0,"2231 LONGRIDGE DR SW, CALGARY, AB",ROOFTOP,50.9974672,-114.1122559
1152,Edgemont Community Centre,Leisure / Community Centres,General,Both,Public,1.0,"33 EDGEVALLEY CI NW, CALGARY, AB",ROOFTOP,51.1284174,-114.1438946
1154,Parkdale Community Centre,Leisure / Community Centres,General,Both,Public,1.0,"3512 5 AV NW, CALGARY, AB",ROOFTOP,51.0603931,-114.1368725
1156,North Haven Community Centre,Leisure / Community Centres,General,Both,Public,1.0,"5003 NORTH HAVEN DR NW, CALGARY, AB",ROOFTOP,51.0990293,-114.0866689
1157,Millican/Ogden/Lynnwood Community Centre,Leisure / Community Centres,General,Both,Public,1.0,"6901 20A ST SE, CALGARY, AB",ROOFTOP,50.99148229999999,-114.0108801
1159,Varsity Community Centre,Leisure / Community Centres,General,Both,Public,1.0,"4303 VARSITY DR NW, CALGARY, AB",ROOFTOP,51.0919744,-114.1492326
1162,Rundle Community Centre,Leisure / Community Centres,General,Both,Public,1.0,"2409 50 ST NE, CALGARY, AB",ROOFTOP,51.07472199999999,-113.9621471
1164,Temple Community Centre,Leisure / Community Centres,General,Both,Public,1.0,"167 TEMPLEGREEN RD NE, CALGARY, AB",ROOFTOP,51.087477,-113.944498
1167,TELUS Spark  Centre,Leisure / Community Centres,General,Indoor,Public,,"220 ST GEORG, CALGARY, AB",ROOFTOP,51.0538914,-114.0244504
1168,Coach Hill/Patterson Heights Community Centre,Leisure / Community Centres,General,Both,Public,1.0,"60 PATTERSON BV SW, CALGARY, AB",ROOFTOP,51.0613357,-114.1780277
1169,Cliffe Bungalow/Mission Community Association,Leisure / Community Centres,General,Both,Public,1.0,"2201 CLIFF ST SW, CALGARY, AB",ROOFTOP,51.0333847,-114.0759874
1170,Forest Lawn Community Centre,Leisure / Community Centres,General,Both,Public,1.0,"4020 26 AV SE, CALGARY, AB",ROOFTOP,51.0306429,-113.9768419
1171,South Calgary Community Centre,Leisure / Community Centres,General,Both,Public,1.0,"3130 16 ST SW, CALGARY, AB",ROOFTOP,51.0256289,-114.0986013
1173,Fort Calgary,Leisure / Community Centres,General,Indoor,Public,1.0,"750 9 AV SE, CALGARY, AB",GEOMETRIC_CENTER,51.0444553,-114.0445093
1174,Forest Heights/ Fonda Community Centre,Ice,2+ surfaces,Both,Public,1.0,"4909 FOREGO AV SE, CALGARY, AB",ROOFTOP,51.04920420000001,-113.9630091
1176,University of Calgary Olympic Oval,Ice,2+ surfaces,Both,Public,,"2500 UNIVERSITY DR. N.W. , CALGARY, AB",ROOFTOP,51.0755455,-114.1297544
1179,Scotiabank Saddledome,Ice,Single surface,Indoor,Public,1.0,"555 SADDLEDOME RISE S, CALGARY, AB",ROOFTOP,51.0374456,-114.0518731
1180,All Chiefs Sportsplex,Ice,2+ surfaces,Indoor,Public,1.0,"9911 CHIILA BLVD., TSUUT INA NATION, AB",GEOMETRIC_CENTER,50.94833329999999,-114.1458333
1185,Calgary Curling Club,Ice,Curling,Indoor,Public,1.0,"720 3 ST NW, CALGARY, AB",ROOFTOP,51.0582881,-114.0695287
1186,Garrison Curling Club Calgary,Ice,Curling,Indoor,Public,1.0,"2288 47 AVE SW, CALGARY, AB",ROOFTOP,51.0119237,-114.11472
1187,North Hill Curling Club ,Ice,Curling,Indoor,Public,,"1201 2 STREET NW, CALGARY, AB",ROOFTOP,51.0626706,-114.0683366
1188,Calgary Youth Curling Association,Ice,Curling,Indoor,Public,,"720 3RD STREET NW, CALGARY, AB",ROOFTOP,51.0582881,-114.0695287
1189,Calgary Wheelchair Curling Association,Ice,Curling,Indoor,Public,1.0,"2288 47 AVENUE SW, CALGARY, AB",ROOFTOP,51.0119237,-114.11472
1190,Calgary Sport and Social Club,Leisure / Community Centres,General,Indoor,Public,1.0,"4411 6 STREET SE, CALGARY, AB",ROOFTOP,51.014754,-114.0504339
1198,Calgary Winter Club ,Leisure / Community Centres,General,Indoor,Public,1.0,"4611 14 STREET NW, CALGARY, AB",ROOFTOP,51.0933612,-114.0956078
1207,Curlers Corner,Ice,Curling,Indoor,Public,1.0,"720 3 ST NW, CALGARY, AB",ROOFTOP,51.0582881,-114.0695287
1208,The Glencoe Club,Leisure / Community Centres,General,Indoor,Public,,"636 29 AV SW, CALGARY, AB",ROOFTOP,51.0288966,-114.0801157
1215,Acadia Valley Curling Club,Ice,Curling,Indoor,Public,,"ACADIA VALLEY AB, CALGARY, AB",APPROXIMATE,51.157764,-110.214152
1216,Acme Community Centre,Leisure / Community Centres,General,Indoor,Public,,"139 ALLISON STREET, ACME, AB",ROOFTOP,51.49373,-113.511326
1217,Acme Curling Club,Ice,Curling,Indoor,Public,,"117 ALLISON ST, ACME, AB",RANGE_INTERPOLATED,51.4937646,-113.5102947
1218,Acme Racquetball Club,Physical Recreation & Sports,"Racquet courts (squash, racquetball, badminton)",Indoor,Public,,"610 WALSH AVE, ACME, AB, ACME, AB",ROOFTOP,51.4971182,-113.5123149
1219,Ogden Legion,Ice,Curling,Indoor,Public,1.0,"120 ALLISON ST, CALGARY, AB",APPROXIMATE,51.04473309999999,-114.0718831
1220,Springbank Curling Club,Ice,Curling,Indoor,Public,1.0,"32224A SPRINGBANK ROAD, CALGARY, AB",ROOFTOP,51.0678875,-114.3478626
1221,The Compound Skate Park,Physical Recreation & Sports,Skate parks,Indoor,Public,1.0,"840 26 AV SE, CALGARY, AB",ROOFTOP,51.0309101,-114.0409834
1222,Midnapore Skate Spot,Physical Recreation & Sports,Skate parks,Indoor,Public,,"50 MIDPARK RISE SE, CALGARY, AB",ROOFTOP,50.9154898,-114.05653
1223,The Park Indoor Skatepark,Physical Recreation & Sports,Skate parks,Indoor,Public,,"7056 FARRELL RD SE, CALGARY, AB",ROOFTOP,50.9922913,-114.0555139
1226,Foothills Pool,Aquatics,25m pool with or without other pools,Indoor,Public,,"2431 CROWCHILD TRAIL NW, CALGARY, AB",ROOFTOP,51.0717777,-114.1231535
1227,The Riverside Club,Aquatics,25m pool with or without other pools,Indoor,Public,,"110 POINT MCKAY CR NW, CALGARY, AB",ROOFTOP,51.0621879,-114.1480997
1229,Sait Aquatic Centre,Aquatics,25m pool with or without other pools,Indoor,Public,,"1301 16 AVE NW, CALGARY, AB",ROOFTOP,51.0663333,-114.0865588
1233,UCalgary Aquatic Centre,Aquatics,25m pool with or without other pools,Indoor,Public,,"2500 UNIVERSITY DR NW, CALGARY, AB",ROOFTOP,51.0755455,-114.1297544
1234,Calgary Jewish Community Centre,Aquatics,25m pool with or without other pools,Indoor,Public,1.0,"1607 90 AVE SW, CALGARY, AB",ROOFTOP,50.9715795,-114.0990656
1236,Mount Royal University Aquatic Centre,Aquatics,25m pool with or without other pools,Indoor,Public,,"4825 MOUNT ROYAL GATE SW, CALGARY, AB",ROOFTOP,51.0087427,-114.1340982
1237,The Beach YYC,Physical Recreation & Sports,Sport fields,Indoor,Public,,"3030-2600 PORTLAND STREET SE, CALGARY, AB",ROOFTOP,51.031377,-114.0329874
1238,Alberta Chinese Recreation Association ,Leisure / Community Centres,General,Indoor,Public,1.0,"132 3 AV SE, CALGARY, AB",ROOFTOP,51.050472,-114.0608752
1239,FLC Seniors Club,Leisure / Community Centres,Seniors,Both,Public,,"11150 BONAVENTURE DRIVE SE, CALGARY, AB",ROOFTOP,50.9522484,-114.0590421
1243,Bow Cliff Seniors,Leisure / Community Centres,Seniors,Indoor,Public,,"608 POPLAR RD SW, CALGARY, AB",ROOFTOP,51.04755,-114.136349
1244,Calgary Chinese Elderly Citizens' Association,Leisure / Community Centres,Seniors,Indoor,Public,,"111 RIVERFRONT AV SW, CALGARY, AB",ROOFTOP,51.05181,-114.0632911
1245,Boys & Girls Club Penbrooke Club,Leisure / Community Centres,Youth,Indoor,Public,,"6098 PENBROOKE DRIVE SE, CALGARY, AB",RANGE_INTERPOLATED,51.0453055,-113.944222
1246,Boys & Girls Club Pineridge Club,Leisure / Community Centres,Youth,Indoor,Public,,"6012 RUNDLEHORN DR NE, CALGARY, AB",ROOFTOP,51.071642,-113.9457413
1247,Boys & Girls Club Bowness Club,Leisure / Community Centres,Youth,Indoor,Public,,"36 7930 BOWNESS RD NW, CALGARY, AB",ROOFTOP,51.0898584,-114.200138
1248,Boys & Girls Club Forest Lawn Club,Leisure / Community Centres,Youth,Indoor,Public,,"4105 16 AV SE, CALGARY, AB",ROOFTOP,51.0392433,-113.9754473
1249,Boys & Girls Club Renfrew,Leisure / Community Centres,Youth,Indoor,Public,,"731 13TH AV NE, CALGARY, AB",ROOFTOP,51.0637807,-114.047534
1250,Cornerstone Youth Centre - Mayland,Leisure / Community Centres,Youth,Indoor,Public,1.0,"904 19 ST NE, CALGARY, AB",ROOFTOP,51.0598233,-114.012995
1251,The Calgary Bridge Foundation for Youth,Leisure / Community Centres,Youth,Indoor,Public,,"5920 MACLEOD TRAIL SW, CALGARY, AB",ROOFTOP,51.0005947,-114.0709139
1252,Youth Centres of Calgary,Leisure / Community Centres,Youth,Indoor,Public,1.0,"7400 23 ST SE, CALGARY, AB",RANGE_INTERPOLATED,50.9866465,-114.0027884
1253,Youth Central ,Leisure / Community Centres,Youth,Indoor,Public,1.0,"105 12 AV SE, CALGARY, AB",ROOFTOP,51.0411562,-114.0629964
1254,LOL Calgary Family Entertainment Centre,Physical Recreation & Sports,Playgrounds ,Indoor,Public,,"13226 MACLEOD TRAIL SE, CALGARY, AB",ROOFTOP,50.9328395,-114.0661016
1255,Hide N Seek,Physical Recreation & Sports,Playgrounds ,Indoor,Public,,"49 AERO DR NE, CALGARY, AB",ROOFTOP,51.1231564,-114.0404367
1256,Treehouse Indoor Playground,Physical Recreation & Sports,Playgrounds ,Indoor,Public,1.0,"240 MIDPARK WAY SE, CALGARY, AB",ROOFTOP,50.9135623,-114.0639924
1257,Heroic Athletics,Physical Recreation & Sports,Fitness centres / areas ,Indoor,Public,1.0,"125 - 2985 23 AVE NE, CALGARY, AB",ROOFTOP,51.0712426,-113.9942182
1258,World Gym Calgary Southland,Physical Recreation & Sports,Fitness centres / areas ,Indoor,Public,1.0,"10655 SOUTHPORT RD SW SUITE B1, CALGARY, AB",ROOFTOP,50.9590815,-114.0740282
1259,Gold's Gym Calgary Northgate,Physical Recreation & Sports,Fitness centres / areas ,Indoor,Private,,"565 36 ST NE, CALGARY, AB",ROOFTOP,51.0565242,-113.9851305
1260,Fitness Table,Physical Recreation & Sports,Fitness centres / areas ,Indoor,Private,,"1130 12 ST SW, CALGARY, AB",ROOFTOP,51.0425228,-114.0911432
1261,Jack Simpson Gymnasium,Physical Recreation & Sports,Fitness centres / areas ,Indoor,Public,1.0,"2500 UNIVERSITY DR. N.W., CALGARY, AB",ROOFTOP,51.0755455,-114.1297544
1262,Fitness Plus,Physical Recreation & Sports,Fitness centres / areas ,Indoor,Private,,"10401 BRAESIDE DR SW, CALGARY, AB",ROOFTOP,50.96031809999999,-114.1041249
1265,Anytime Fitness ,Physical Recreation & Sports,Fitness centres / areas ,Indoor,Private,,"3650 WESTWINDS DR NE, CALGARY, AB",ROOFTOP,51.1076687,-113.9683721
1266,University of Calgary Active Living,Physical Recreation & Sports,Fitness centres / areas ,Indoor,Public,,"2500 UNIVERSITY DR NW, CALGARY, AB",ROOFTOP,51.0755455,-114.1297544
1271,Canyon Meadows Pool And Fitness Centre,Physical Recreation & Sports,Fitness centres / areas ,Indoor,Public,,"89 CANOVA ROAD SW, CALGARY, AB",ROOFTOP,50.9483676,-114.0898111
1273,9Round Aspen Landing,Physical Recreation & Sports,Fitness centres / areas ,Indoor,Public,,"306 ASPEN GLEN, LANDNG SW STE 128, CALGARY, AB",ROOFTOP,51.038852,-114.207428
1274,9Round Shepard,Physical Recreation & Sports,Fitness centres / areas ,Indoor,Public,,"5272 130 AVE SE, CALGARY, AB",ROOFTOP,50.9309361,-113.9589637
1275,Olympic Oval,Physical Recreation & Sports,Running tracks (track and field),Indoor,Public,,"288 COLLEGIATE BLVD NW, CALGARY, AB",ROOFTOP,51.077411,-114.1347353
1278,Hamptons Community Association,Leisure / Community Centres,General,Indoor,Public,1.0,"16 HAMPSTEAD CLOSE NW, CALGARY, AB",ROOFTOP,51.1406879,-114.1500415
1279,Springbank Park for All Seasons,Ice,2+ surfaces,Both,Public,,"32224A SPRINGBANK ROAD, CALGARY, AB",ROOFTOP,51.0678875,-114.3478626
1282,Ron Ebbesen Arena,Ice,2+ surfaces,Indoor,Public,,"200 EAST LAKE CRESCEN, AIRDRIE, AB",ROOFTOP,51.2849432,-113.999147
1283,Plainsmen Arena,Ice,Single surface,Indoor,Public,,"320 CENTRE AVENUE E, AIRDRIE, AB",ROOFTOP,51.2916544,-114.0073294
1284,Genesis Place Twin Arena,Ice,2+ surfaces,Indoor,Public,,"800 EAST LAKE BLVD NE , AIRDRIE, AB",ROOFTOP,51.2845787,-113.9944165
1285,Genesis Place,Physical Recreation & Sports,Gymnasiums ,Indoor,Public,,"800 EAST LAKE BLVD NE , AIRDRIE, AB",ROOFTOP,51.2845787,-113.9944165
1289,Airdrie Curling Club,Ice,Curling,Indoor,Public,,"275 JENSEN DR NE, AIRDRIE, AB, AIRDRIE, AB",ROOFTOP,51.2972946,-114.005548
1290,The Little Gym of Airdrie,Physical Recreation & Sports,Gymnasiums ,Indoor,Public,1.0,"505 MAIN STREET SW SUITE 313, AIRDRIE, AB",ROOFTOP,51.2886634,-114.0150972
1293,Recreation Centre Field,Ice,Single surface,Indoor,Public,,"1900 8 AVE, CANMORE , AB",GEOMETRIC_CENTER,51.0998649,-115.3643709
1295,Canmore Golf & Curling Club,Ice,Curling,Indoor,Public,,"2000 8 AVE, CANMORE , AB",ROOFTOP,51.1005362,-115.3657877
1296,Elevation Place,Aquatics,25m pool with or without other pools,Indoor,Public,,"700 RAILWAY AVE #100, CANMORE , AB",,0.0,0.0
1299,Gym 4031,Leisure / Community Centres,General,Indoor,Public,,"292120 WAGON WHEEL BLVD. , ROCKY VIEW COUNTY, AB",ROOFTOP,51.2114128,-113.9677304
1304,Spray Lake Sawmills Family Sports Centre,Physical Recreation & Sports,Sport fields,Indoor,Public,1.0,"800 GRIFFIN ROAD EAST, COCHRANE, AB",ROOFTOP,51.1760076,-114.4542081
1310,SENIORS ON THE BOW CENTRE,Leisure / Community Centres,Seniors,Indoor,Public,,"800 GRIFFIN ROAD EAST, COCHRANE, AB",ROOFTOP,51.1760076,-114.4542081
1311,Cochrane Arena,Ice,Single surface,Indoor,Public,1.0,"609 4 AVE N, COCHRANE, AB",ROOFTOP,51.1988873,-114.4728486
1315,Cochrane Health & Fitness Club,Physical Recreation & Sports,Fitness centres / areas ,Indoor,Public,1.0,"118 1 AVENUE UPPER LEVEL, COCHRANE, AB",ROOFTOP,51.1903734,-114.4671844
1316,Community Yoga Cochrane,Physical Recreation & Sports,Fitness centres / areas ,Indoor,Public,1.0,"123 2 AVE W #5, COCHRANE, AB",,0.0,0.0
1318,Chestermere Regional Community Association,Physical Recreation & Sports,Gymnasiums ,Indoor,Public,1.0,"201 WEST CHESTERMERE DRIVE, CHESTERMERE, AB",ROOFTOP,51.0475753,-113.8237565
1324,Crossfield and District Community Centre,Leisure / Community Centres,General,Indoor,Public,1.0,"900 MOUNTAIN AVENUE, CROSSFIELD, AB",ROOFTOP,51.4338777,-114.0256894
1325,Curling Club,Ice,Curling,Indoor,Public,1.0,"1120 OSLER AVE, CROSSFIELD, AB",ROOFTOP,51.43016009999999,-114.0309133
1326,Pete Knight Memorial Arena,Ice,Single surface,Indoor,Public,1.0,"920 MOUNTAIN AVE, CROSSFIELD, AB",ROOFTOP,51.4334864,-114.0266616
1328,Yoga Classes,Physical Recreation & Sports,Fitness centres / areas ,Indoor,Public,,"222 2 STREET IRRICANA, AB, IRRICANA, AB",ROOFTOP,51.32247,-113.6071922
1329,Beiseker Community Hall,Leisure / Community Centres,General,Indoor,Public,,"410 5 ST, BEISEKER, AB",ROOFTOP,51.3849825,-113.5305611
1330,Beiseker Arena & Sports Complex,Ice,Single surface,Indoor,Public,,"410 5TH STREET, BEISEKER, AB",ROOFTOP,51.3849825,-113.5305611
1331,Beiseker Centennial Building,Leisure / Community Centres,General,Indoor,Public,,"410 5 STREET, BEISEKER, AB",ROOFTOP,51.3849825,-113.5305611
1332,Ogilvie,Leisure / Community Centres,General,Indoor,Public,,"951 OGILVIE BLVD NW, EDMONTON, AB",ROOFTOP,53.4636597,-113.5628825
1333,Edmonton Minor Soccer Association,Physical Recreation & Sports,Sport fields,Indoor,Public,1.0,"6520 ROPER RD NW, EDMONTON, AB",ROOFTOP,53.4957785,-113.4309849
1334,Alberta Avenue Community League,Leisure / Community Centres,General,Indoor,Public,,"9210 118 AVE NW, EDMONTON, AB",ROOFTOP,53.5707101,-113.4831594
1336,Belmead Park,Physical Recreation & Sports,Playgrounds ,,,1.0,"18215 182 ST NW, EDMONTON, AB",ROOFTOP,53.5278296,-113.6394973
1338,Rio Terrace Preschool,Leisure / Community Centres,Youth,Indoor,Public,,"15500 76 AVE NW, EDMONTON, AB",ROOFTOP,53.5081835,-113.588203
1340,Westridge WolfWillow Community League,Leisure / Community Centres,General,Indoor,Public,1.0,"505 WOLF WILLOW RD NW, EDMONTON, AB",ROOFTOP,53.50615699999999,-113.60356
1341,Allendale Community League,Leisure / Community Centres,General,Indoor,Public,,"6330 105A ST NW, EDMONTON, AB",ROOFTOP,53.50101009999999,-113.5024675
